{"type": "FeatureCollection", "features": [{"geometry": {"type": "Point", "coordinates": [-114.66283996203994, 32.624506307218894]}, "type": "Feature", "properties": {"date": "05/16/2016", "city": null, "region": "Yuma County (Arizona, USA)", "positive": "SLEV", "title": "YTD Positive Sentinel Chicken"}}, {"geometry": {"type": "Point", "coordinates": [-114.66732916842982, 32.62595933836609]}, "type": "Feature", "properties": {"date": "05/27/2016", "city": null, "region": "Yuma County (Arizona, USA)", "positive": "SLEV", "title": "YTD Positive Sentinel Chicken"}}, {"geometry": {"type": "Point", "coordinates": [-114.66920547699023, 32.71421646906434]}, "type": "Feature", "properties": {"date": "06/28/2016", "city": "Yuma", "region": "Yuma County (Arizona, USA)", "positive": "SLEV", "title": "YTD Positive Sentinel Chicken"}}, {"geometry": {"type": "Point", "coordinates": [-114.55440022425942, 32.701564099517704]}, "type": "Feature", "properties": {"date": "06/28/2016", "city": "Gila Valley", "region": "Yuma County (Arizona, USA)", "positive": "SLEV", "title": "YTD Positive Sentinel Chicken"}}, {"geometry": {"type": "Point", "coordinates": [-114.58954977369906, 34.83182442956114]}, "type": "Feature", "properties": {"date": "07/12/2016", "city": "Needles", "region": "San Bernardino County (California, USA)", "positive": "SLEV", "title": "YTD Positive Sentinel Chicken"}}, {"geometry": {"type": "Point", "coordinates": [-114.67333213364249, 32.715117333354996]}, "type": "Feature", "properties": {"date": "07/11/2016", "city": "Yuma", "region": "Yuma County (Arizona, USA)", "positive": "SLEV", "title": "YTD Positive Sentinel Chicken"}}, {"geometry": {"type": "Point", "coordinates": [-114.66370119562842, 32.62001534603975]}, "type": "Feature", "properties": {"date": "07/11/2016", "city": null, "region": "Yuma County (Arizona, USA)", "positive": "SLEV", "title": "YTD Positive Sentinel Chicken"}}, {"geometry": {"type": "Point", "coordinates": [-114.55006442385853, 32.70499937955419]}, "type": "Feature", "properties": {"date": "07/11/2016", "city": "Gila Valley", "region": "Yuma County (Arizona, USA)", "positive": "SLEV", "title": "YTD Positive Sentinel Chicken"}}, {"geometry": {"type": "Point", "coordinates": [-114.59815980002338, 34.82580660314919]}, "type": "Feature", "properties": {"date": "07/21/2016", "city": "Needles", "region": "San Bernardino County (California, USA)", "positive": "SLEV", "title": "YTD Positive Sentinel Chicken"}}, {"geometry": {"type": "Point", "coordinates": [-114.59782148344873, 34.832700545143794]}, "type": "Feature", "properties": {"date": "07/27/2016", "city": "Needles", "region": "San Bernardino County (California, USA)", "positive": "SLEV", "title": "YTD Positive Sentinel Chicken"}}, {"geometry": {"type": "Point", "coordinates": [-114.6702023915953, 32.71511557577822]}, "type": "Feature", "properties": {"date": "07/25/2016", "city": "Yuma", "region": "Yuma County (Arizona, USA)", "positive": "SLEV", "title": "YTD Positive Sentinel Chicken"}}, {"geometry": {"type": "Point", "coordinates": [-114.66811041423607, 32.62598977044367]}, "type": "Feature", "properties": {"date": "07/25/2016", "city": null, "region": "Yuma County (Arizona, USA)", "positive": "SLEV", "title": "YTD Positive Sentinel Chicken"}}, {"geometry": {"type": "Point", "coordinates": [-114.55295913703675, 32.70235551859694]}, "type": "Feature", "properties": {"date": "07/25/2016", "city": "Gila Valley", "region": "Yuma County (Arizona, USA)", "positive": "SLEV", "title": "YTD Positive Sentinel Chicken"}}, {"geometry": {"type": "Point", "coordinates": [-114.66882772048352, 32.7188197513739]}, "type": "Feature", "properties": {"date": "08/06/2016", "city": "Yuma", "region": "Yuma County (Arizona, USA)", "positive": "SLEV", "title": "YTD Positive Sentinel Chicken"}}, {"geometry": {"type": "Point", "coordinates": [-114.55091699434254, 32.70153210108912]}, "type": "Feature", "properties": {"date": "08/06/2016", "city": "Gila Valley", "region": "Yuma County (Arizona, USA)", "positive": "SLEV", "title": "YTD Positive Sentinel Chicken"}}, {"geometry": {"type": "Point", "coordinates": [-114.66777859731556, 32.71252704576695]}, "type": "Feature", "properties": {"date": "08/22/2016", "city": "Yuma", "region": "Yuma County (Arizona, USA)", "positive": "SLEV", "title": "YTD Positive Sentinel Chicken"}}, {"geometry": {"type": "Point", "coordinates": [-114.54886832154995, 32.706244690696685]}, "type": "Feature", "properties": {"date": "08/22/2016", "city": "Gila Valley", "region": "Yuma County (Arizona, USA)", "positive": "SLEV", "title": "YTD Positive Sentinel Chicken"}}, {"geometry": {"type": "Point", "coordinates": [-118.46088321220095, 34.00892627820676]}, "type": "Feature", "properties": {"date": "09/01/2016", "city": "Venice", "region": "Los Angeles County (California, USA)", "positive": "SLEV", "title": "YTD Positive Sentinel Chicken"}}, {"geometry": {"type": "Point", "coordinates": [-114.66961949060908, 32.71239508804344]}, "type": "Feature", "properties": {"date": "09/06/2016", "city": "Yuma", "region": "Yuma County (Arizona, USA)", "positive": "SLEV", "title": "YTD Positive Sentinel Chicken"}}, {"geometry": {"type": "Point", "coordinates": [-114.54734517881776, 32.70644429019259]}, "type": "Feature", "properties": {"date": "09/06/2016", "city": "Gila Valley", "region": "Yuma County (Arizona, USA)", "positive": "SLEV", "title": "YTD Positive Sentinel Chicken"}}, {"geometry": {"type": "Point", "coordinates": [-118.45915981514521, 34.00698498401424]}, "type": "Feature", "properties": {"date": "09/14/2016", "city": "Venice", "region": "Los Angeles County (California, USA)", "positive": "SLEV", "title": "YTD Positive Sentinel Chicken"}}, {"geometry": {"type": "Point", "coordinates": [-118.17815502094619, 34.625073538267486]}, "type": "Feature", "properties": {"date": "10/05/2016", "city": "Palmdale", "region": "Los Angeles County (California, USA)", "positive": "SLEV", "title": "YTD Positive Sentinel Chicken"}}]}