{"type": "FeatureCollection", "features": [{"geometry": {"type": "Point", "coordinates": [-120.97645827717282, 37.29636826575491]}, "type": "Feature", "properties": {"date": "07/14/2017", "city": "Gustine", "region": "Merced County (California, USA)", "positive": "SLEV", "title": "YTD Positive Sentinel Chicken"}}, {"geometry": {"type": "Point", "coordinates": [-117.3534931012735, 34.13000981287042]}, "type": "Feature", "properties": {"date": "07/18/2017", "city": "Rialto", "region": "San Bernardino County (California, USA)", "positive": "SLEV", "title": "YTD Positive Sentinel Chicken"}}, {"geometry": {"type": "Point", "coordinates": [-120.96933818902524, 37.286753601157805]}, "type": "Feature", "properties": {"date": "07/25/2017", "city": "Gustine", "region": "Merced County (California, USA)", "positive": "SLEV", "title": "YTD Positive Sentinel Chicken"}}, {"geometry": {"type": "Point", "coordinates": [-117.35168563547677, 34.133758075897745]}, "type": "Feature", "properties": {"date": "07/26/2017", "city": "Rialto", "region": "San Bernardino County (California, USA)", "positive": "SLEV", "title": "YTD Positive Sentinel Chicken"}}, {"geometry": {"type": "Point", "coordinates": [-117.35456371754577, 34.127930256031405]}, "type": "Feature", "properties": {"date": "08/02/2017", "city": "Rialto", "region": "San Bernardino County (California, USA)", "positive": "SLEV", "title": "YTD Positive Sentinel Chicken"}}, {"geometry": {"type": "Point", "coordinates": [-117.35899758234908, 34.127833583419836]}, "type": "Feature", "properties": {"date": "08/16/2017", "city": "Rialto", "region": "San Bernardino County (California, USA)", "positive": "SLEV", "title": "YTD Positive Sentinel Chicken"}}, {"geometry": {"type": "Point", "coordinates": [-118.06241663379531, 34.680136004082875]}, "type": "Feature", "properties": {"date": "09/13/2017", "city": "Lancaster", "region": "Los Angeles County (California, USA)", "positive": "SLEV", "title": "YTD Positive Sentinel Chicken"}}, {"geometry": {"type": "Point", "coordinates": [-118.11853904186542, 34.5610411456705]}, "type": "Feature", "properties": {"date": "09/27/2017", "city": "Palmdale", "region": "Los Angeles County (California, USA)", "positive": "SLEV", "title": "YTD Positive Sentinel Chicken"}}]}