{"type": "FeatureCollection", "features": [{"geometry": {"type": "Point", "coordinates": [-119.10399256816028, 35.34895364802965]}, "type": "Feature", "properties": {"date": "05/11/2016", "city": "Bakersfield", "region": "Kern County (California, USA)", "positive": "SLEV", "title": "YTD Positive Mosquito Pool"}}, {"geometry": {"type": "Point", "coordinates": [-119.07204675524274, 35.3394554909217]}, "type": "Feature", "properties": {"date": "05/11/2016", "city": "Bakersfield", "region": "Kern County (California, USA)", "positive": "SLEV", "title": "YTD Positive Mosquito Pool"}}, {"geometry": {"type": "Point", "coordinates": [-119.07349623516582, 35.32330952903578]}, "type": "Feature", "properties": {"date": "05/11/2016", "city": "Bakersfield", "region": "Kern County (California, USA)", "positive": "SLEV", "title": "YTD Positive Mosquito Pool"}}, {"geometry": {"type": "Point", "coordinates": [-119.08082999413179, 35.35288550356486]}, "type": "Feature", "properties": {"date": "05/18/2016", "city": "Bakersfield", "region": "Kern County (California, USA)", "positive": "SLEV", "title": "YTD Positive Mosquito Pool"}}, {"geometry": {"type": "Point", "coordinates": [-119.05887329958753, 35.314105304183855]}, "type": "Feature", "properties": {"date": "05/18/2016", "city": "Bakersfield", "region": "Kern County (California, USA)", "positive": "SLEV", "title": "YTD Positive Mosquito Pool"}}, {"geometry": {"type": "Point", "coordinates": [-119.07298480081487, 35.33013464129979]}, "type": "Feature", "properties": {"date": "05/18/2016", "city": "Bakersfield", "region": "Kern County (California, USA)", "positive": "SLEV", "title": "YTD Positive Mosquito Pool"}}, {"geometry": {"type": "Point", "coordinates": [-119.00821576111531, 35.32272136065389]}, "type": "Feature", "properties": {"date": "05/19/2016", "city": "Bakersfield", "region": "Kern County (California, USA)", "positive": "SLEV", "title": "YTD Positive Mosquito Pool"}}, {"geometry": {"type": "Point", "coordinates": [-119.07973027050497, 35.28036793506427]}, "type": "Feature", "properties": {"date": "05/19/2016", "city": "Bakersfield", "region": "Kern County (California, USA)", "positive": "SLEV", "title": "YTD Positive Mosquito Pool"}}, {"geometry": {"type": "Point", "coordinates": [-119.03536862082191, 35.35318613525246]}, "type": "Feature", "properties": {"date": "05/20/2016", "city": "Bakersfield", "region": "Kern County (California, USA)", "positive": "SLEV", "title": "YTD Positive Mosquito Pool"}}, {"geometry": {"type": "Point", "coordinates": [-119.10569301909261, 35.33646988480299]}, "type": "Feature", "properties": {"date": "05/27/2016", "city": "Bakersfield", "region": "Kern County (California, USA)", "positive": "SLEV", "title": "YTD Positive Mosquito Pool"}}, {"geometry": {"type": "Point", "coordinates": [-119.04458536213481, 35.353389192785514]}, "type": "Feature", "properties": {"date": "06/01/2016", "city": "Bakersfield", "region": "Kern County (California, USA)", "positive": "SLEV", "title": "YTD Positive Mosquito Pool"}}, {"geometry": {"type": "Point", "coordinates": [-119.09859122623146, 35.32823151779811]}, "type": "Feature", "properties": {"date": "06/01/2016", "city": "Bakersfield", "region": "Kern County (California, USA)", "positive": "SLEV", "title": "YTD Positive Mosquito Pool"}}, {"geometry": {"type": "Point", "coordinates": [-119.10484695458622, 35.33671454517756]}, "type": "Feature", "properties": {"date": "06/01/2016", "city": "Bakersfield", "region": "Kern County (California, USA)", "positive": "SLEV", "title": "YTD Positive Mosquito Pool"}}, {"geometry": {"type": "Point", "coordinates": [-119.12712892732507, 35.344838542187645]}, "type": "Feature", "properties": {"date": "06/08/2016", "city": "Bakersfield", "region": "Kern County (California, USA)", "positive": "SLEV", "title": "YTD Positive Mosquito Pool"}}, {"geometry": {"type": "Point", "coordinates": [-119.0053910907391, 35.296559586623246]}, "type": "Feature", "properties": {"date": "06/09/2016", "city": "Bakersfield", "region": "Kern County (California, USA)", "positive": "SLEV", "title": "YTD Positive Mosquito Pool"}}, {"geometry": {"type": "Point", "coordinates": [-118.94120439111106, 35.346185255890674]}, "type": "Feature", "properties": {"date": "06/09/2016", "city": "Bakersfield", "region": "Kern County (California, USA)", "positive": "SLEV", "title": "YTD Positive Mosquito Pool"}}, {"geometry": {"type": "Point", "coordinates": [-119.17999527296071, 35.381998460189195]}, "type": "Feature", "properties": {"date": "06/10/2016", "city": "Bakersfield", "region": "Kern County (California, USA)", "positive": "SLEV", "title": "YTD Positive Mosquito Pool"}}, {"geometry": {"type": "Point", "coordinates": [-119.03754374788402, 35.373972686046244]}, "type": "Feature", "properties": {"date": "06/22/2016", "city": "Bakersfield", "region": "Kern County (California, USA)", "positive": "SLEV", "title": "YTD Positive Mosquito Pool"}}, {"geometry": {"type": "Point", "coordinates": [-119.0048949873286, 35.37768339440858]}, "type": "Feature", "properties": {"date": "06/22/2016", "city": "Bakersfield", "region": "Kern County (California, USA)", "positive": "SLEV", "title": "YTD Positive Mosquito Pool"}}, {"geometry": {"type": "Point", "coordinates": [-118.97431723440636, 35.28548908344031]}, "type": "Feature", "properties": {"date": "06/23/2016", "city": "Bakersfield", "region": "Kern County (California, USA)", "positive": "SLEV", "title": "YTD Positive Mosquito Pool"}}, {"geometry": {"type": "Point", "coordinates": [-116.07379121263281, 33.52318183677199]}, "type": "Feature", "properties": {"date": "06/28/2016", "city": null, "region": "Riverside County (California, USA)", "positive": "SLEV", "title": "YTD Positive Mosquito Pool"}}, {"geometry": {"type": "Point", "coordinates": [-119.01139849588, 35.37687106060184]}, "type": "Feature", "properties": {"date": "06/29/2016", "city": "Bakersfield", "region": "Kern County (California, USA)", "positive": "SLEV", "title": "YTD Positive Mosquito Pool"}}, {"geometry": {"type": "Point", "coordinates": [-116.02637275644788, 33.52647428228749]}, "type": "Feature", "properties": {"date": "06/28/2016", "city": "Mecca", "region": "Riverside County (California, USA)", "positive": "SLEV", "title": "YTD Positive Mosquito Pool"}}, {"geometry": {"type": "Point", "coordinates": [-119.14612820762194, 35.44220496545642]}, "type": "Feature", "properties": {"date": "07/01/2016", "city": "Bakersfield", "region": "Kern County (California, USA)", "positive": "SLEV", "title": "YTD Positive Mosquito Pool"}}, {"geometry": {"type": "Point", "coordinates": [-119.08894106535685, 35.47529292047247]}, "type": "Feature", "properties": {"date": "07/06/2016", "city": "Bakersfield", "region": "Kern County (California, USA)", "positive": "SLEV", "title": "YTD Positive Mosquito Pool"}}, {"geometry": {"type": "Point", "coordinates": [-116.02571205076198, 33.52547197270038]}, "type": "Feature", "properties": {"date": "07/06/2016", "city": "Mecca", "region": "Riverside County (California, USA)", "positive": "SLEV", "title": "YTD Positive Mosquito Pool"}}, {"geometry": {"type": "Point", "coordinates": [-119.10538111725951, 35.31892850598953]}, "type": "Feature", "properties": {"date": "07/07/2016", "city": "Bakersfield", "region": "Kern County (California, USA)", "positive": "SLEV", "title": "YTD Positive Mosquito Pool"}}, {"geometry": {"type": "Point", "coordinates": [-119.10906677749288, 35.38100901180508]}, "type": "Feature", "properties": {"date": "07/08/2016", "city": "Bakersfield", "region": "Kern County (California, USA)", "positive": "SLEV", "title": "YTD Positive Mosquito Pool"}}, {"geometry": {"type": "Point", "coordinates": [-118.93717559731203, 35.28384143286742]}, "type": "Feature", "properties": {"date": "07/08/2016", "city": "Lamont", "region": "Kern County (California, USA)", "positive": "SLEV", "title": "YTD Positive Mosquito Pool"}}, {"geometry": {"type": "Point", "coordinates": [-116.07742013329545, 33.537557755915934]}, "type": "Feature", "properties": {"date": "07/12/2016", "city": "Mecca", "region": "Riverside County (California, USA)", "positive": "SLEV", "title": "YTD Positive Mosquito Pool"}}, {"geometry": {"type": "Point", "coordinates": [-116.07655681193071, 33.52271390932873]}, "type": "Feature", "properties": {"date": "07/12/2016", "city": "Mecca", "region": "Riverside County (California, USA)", "positive": "SLEV", "title": "YTD Positive Mosquito Pool"}}, {"geometry": {"type": "Point", "coordinates": [-116.07023154472873, 33.52206039207996]}, "type": "Feature", "properties": {"date": "07/12/2016", "city": null, "region": "Riverside County (California, USA)", "positive": "SLEV", "title": "YTD Positive Mosquito Pool"}}, {"geometry": {"type": "Point", "coordinates": [-116.0806515712459, 33.52084210405786]}, "type": "Feature", "properties": {"date": "07/12/2016", "city": "Mecca", "region": "Riverside County (California, USA)", "positive": "SLEV", "title": "YTD Positive Mosquito Pool"}}, {"geometry": {"type": "Point", "coordinates": [-116.09655853516428, 33.53007482936964]}, "type": "Feature", "properties": {"date": "07/12/2016", "city": "Mecca", "region": "Riverside County (California, USA)", "positive": "SLEV", "title": "YTD Positive Mosquito Pool"}}, {"geometry": {"type": "Point", "coordinates": [-116.09360081470052, 33.52744437334206]}, "type": "Feature", "properties": {"date": "07/12/2016", "city": "Mecca", "region": "Riverside County (California, USA)", "positive": "SLEV", "title": "YTD Positive Mosquito Pool"}}, {"geometry": {"type": "Point", "coordinates": [-116.05881510548139, 33.53945756164499]}, "type": "Feature", "properties": {"date": "07/12/2016", "city": "Mecca", "region": "Riverside County (California, USA)", "positive": "SLEV", "title": "YTD Positive Mosquito Pool"}}, {"geometry": {"type": "Point", "coordinates": [-119.02065443204232, 35.36294034788167]}, "type": "Feature", "properties": {"date": "07/13/2016", "city": "Bakersfield", "region": "Kern County (California, USA)", "positive": "SLEV", "title": "YTD Positive Mosquito Pool"}}, {"geometry": {"type": "Point", "coordinates": [-119.49652629320885, 35.412620835730856]}, "type": "Feature", "properties": {"date": "07/13/2016", "city": "Buttonwillow", "region": "Kern County (California, USA)", "positive": "SLEV", "title": "YTD Positive Mosquito Pool"}}, {"geometry": {"type": "Point", "coordinates": [-119.08178826631008, 35.365505546453306]}, "type": "Feature", "properties": {"date": "07/15/2016", "city": "Bakersfield", "region": "Kern County (California, USA)", "positive": "SLEV", "title": "YTD Positive Mosquito Pool"}}, {"geometry": {"type": "Point", "coordinates": [-119.19641179886636, 35.527982206275894]}, "type": "Feature", "properties": {"date": "07/15/2016", "city": "Bakersfield", "region": "Kern County (California, USA)", "positive": "SLEV", "title": "YTD Positive Mosquito Pool"}}, {"geometry": {"type": "Point", "coordinates": [-118.9712921204478, 35.186176584056405]}, "type": "Feature", "properties": {"date": "07/15/2016", "city": "Arvin", "region": "Kern County (California, USA)", "positive": "SLEV", "title": "YTD Positive Mosquito Pool"}}, {"geometry": {"type": "Point", "coordinates": [-118.90143875943983, 35.264218606181664]}, "type": "Feature", "properties": {"date": "07/19/2016", "city": "Lamont", "region": "Kern County (California, USA)", "positive": "SLEV", "title": "YTD Positive Mosquito Pool"}}, {"geometry": {"type": "Point", "coordinates": [-119.23183641059198, 35.09812212894758]}, "type": "Feature", "properties": {"date": "07/20/2016", "city": "Bakersfield", "region": "Kern County (California, USA)", "positive": "SLEV", "title": "YTD Positive Mosquito Pool"}}, {"geometry": {"type": "Point", "coordinates": [-119.24502357209828, 35.07310190507318]}, "type": "Feature", "properties": {"date": "07/20/2016", "city": "Bakersfield", "region": "Kern County (California, USA)", "positive": "SLEV", "title": "YTD Positive Mosquito Pool"}}, {"geometry": {"type": "Point", "coordinates": [-119.2418702748438, 35.07557343210119]}, "type": "Feature", "properties": {"date": "07/20/2016", "city": "Bakersfield", "region": "Kern County (California, USA)", "positive": "SLEV", "title": "YTD Positive Mosquito Pool"}}, {"geometry": {"type": "Point", "coordinates": [-119.2446584947674, 35.06781526027695]}, "type": "Feature", "properties": {"date": "07/20/2016", "city": "Bakersfield", "region": "Kern County (California, USA)", "positive": "SLEV", "title": "YTD Positive Mosquito Pool"}}, {"geometry": {"type": "Point", "coordinates": [-119.27229186417941, 35.122816951059015]}, "type": "Feature", "properties": {"date": "07/20/2016", "city": "Bakersfield", "region": "Kern County (California, USA)", "positive": "SLEV", "title": "YTD Positive Mosquito Pool"}}, {"geometry": {"type": "Point", "coordinates": [-119.13874448669962, 35.37284320089343]}, "type": "Feature", "properties": {"date": "07/20/2016", "city": "Bakersfield", "region": "Kern County (California, USA)", "positive": "SLEV", "title": "YTD Positive Mosquito Pool"}}, {"geometry": {"type": "Point", "coordinates": [-119.2575074900545, 35.50654581226891]}, "type": "Feature", "properties": {"date": "07/21/2016", "city": "Shafter", "region": "Kern County (California, USA)", "positive": "SLEV", "title": "YTD Positive Mosquito Pool"}}, {"geometry": {"type": "Point", "coordinates": [-119.23997407693547, 35.24821723336744]}, "type": "Feature", "properties": {"date": "07/22/2016", "city": "Bakersfield", "region": "Kern County (California, USA)", "positive": "SLEV", "title": "YTD Positive Mosquito Pool"}}, {"geometry": {"type": "Point", "coordinates": [-118.94485728897146, 35.138569990821814]}, "type": "Feature", "properties": {"date": "07/22/2016", "city": "Arvin", "region": "Kern County (California, USA)", "positive": "SLEV", "title": "YTD Positive Mosquito Pool"}}, {"geometry": {"type": "Point", "coordinates": [-119.00093976588578, 35.06335431597324]}, "type": "Feature", "properties": {"date": "07/22/2016", "city": "Bakersfield", "region": "Kern County (California, USA)", "positive": "SLEV", "title": "YTD Positive Mosquito Pool"}}, {"geometry": {"type": "Point", "coordinates": [-116.02645658932947, 33.531359107195144]}, "type": "Feature", "properties": {"date": "07/26/2016", "city": "Mecca", "region": "Riverside County (California, USA)", "positive": "SLEV", "title": "YTD Positive Mosquito Pool"}}, {"geometry": {"type": "Point", "coordinates": [-116.08138365734102, 33.51430437798821]}, "type": "Feature", "properties": {"date": "07/26/2016", "city": "Mecca", "region": "Riverside County (California, USA)", "positive": "SLEV", "title": "YTD Positive Mosquito Pool"}}, {"geometry": {"type": "Point", "coordinates": [-116.09781580646928, 33.53020417251643]}, "type": "Feature", "properties": {"date": "07/26/2016", "city": "Mecca", "region": "Riverside County (California, USA)", "positive": "SLEV", "title": "YTD Positive Mosquito Pool"}}, {"geometry": {"type": "Point", "coordinates": [-116.07568147017705, 33.5359249208005]}, "type": "Feature", "properties": {"date": "07/26/2016", "city": "Mecca", "region": "Riverside County (California, USA)", "positive": "SLEV", "title": "YTD Positive Mosquito Pool"}}, {"geometry": {"type": "Point", "coordinates": [-116.0970122786784, 33.55304114348728]}, "type": "Feature", "properties": {"date": "07/26/2016", "city": "Mecca", "region": "Riverside County (California, USA)", "positive": "SLEV", "title": "YTD Positive Mosquito Pool"}}, {"geometry": {"type": "Point", "coordinates": [-116.09473800243548, 33.550173805740215]}, "type": "Feature", "properties": {"date": "07/26/2016", "city": "Mecca", "region": "Riverside County (California, USA)", "positive": "SLEV", "title": "YTD Positive Mosquito Pool"}}, {"geometry": {"type": "Point", "coordinates": [-116.11143856377106, 33.53825118051351]}, "type": "Feature", "properties": {"date": "07/26/2016", "city": "Mecca", "region": "Riverside County (California, USA)", "positive": "SLEV", "title": "YTD Positive Mosquito Pool"}}, {"geometry": {"type": "Point", "coordinates": [-116.0317022978669, 33.530873344057134]}, "type": "Feature", "properties": {"date": "07/27/2016", "city": "Mecca", "region": "Riverside County (California, USA)", "positive": "SLEV", "title": "YTD Positive Mosquito Pool"}}, {"geometry": {"type": "Point", "coordinates": [-116.06439998202926, 33.54478781218441]}, "type": "Feature", "properties": {"date": "07/27/2016", "city": "Mecca", "region": "Riverside County (California, USA)", "positive": "SLEV", "title": "YTD Positive Mosquito Pool"}}, {"geometry": {"type": "Point", "coordinates": [-116.02749379964838, 33.522394212821034]}, "type": "Feature", "properties": {"date": "07/27/2016", "city": "Mecca", "region": "Riverside County (California, USA)", "positive": "SLEV", "title": "YTD Positive Mosquito Pool"}}, {"geometry": {"type": "Point", "coordinates": [-116.02538949295658, 33.524632231332056]}, "type": "Feature", "properties": {"date": "07/27/2016", "city": "Mecca", "region": "Riverside County (California, USA)", "positive": "SLEV", "title": "YTD Positive Mosquito Pool"}}, {"geometry": {"type": "Point", "coordinates": [-116.06418720867629, 33.53232769528863]}, "type": "Feature", "properties": {"date": "07/27/2016", "city": "Mecca", "region": "Riverside County (California, USA)", "positive": "SLEV", "title": "YTD Positive Mosquito Pool"}}, {"geometry": {"type": "Point", "coordinates": [-116.04528251054886, 33.536092743190466]}, "type": "Feature", "properties": {"date": "07/27/2016", "city": "Mecca", "region": "Riverside County (California, USA)", "positive": "SLEV", "title": "YTD Positive Mosquito Pool"}}, {"geometry": {"type": "Point", "coordinates": [-119.2113683029995, 35.595551646899715]}, "type": "Feature", "properties": {"date": "07/28/2016", "city": "Famoso", "region": "Kern County (California, USA)", "positive": "SLEV", "title": "YTD Positive Mosquito Pool"}}, {"geometry": {"type": "Point", "coordinates": [-119.22813959992042, 35.6894659172464]}, "type": "Feature", "properties": {"date": "07/28/2016", "city": "McFarland", "region": "Kern County (California, USA)", "positive": "SLEV", "title": "YTD Positive Mosquito Pool"}}, {"geometry": {"type": "Point", "coordinates": [-116.22734750394322, 33.600547418617246]}, "type": "Feature", "properties": {"date": "07/28/2016", "city": "Thermal", "region": "Riverside County (California, USA)", "positive": "SLEV", "title": "YTD Positive Mosquito Pool"}}, {"geometry": {"type": "Point", "coordinates": [-119.19213879107338, 35.37142502444325]}, "type": "Feature", "properties": {"date": "07/29/2016", "city": "Bakersfield", "region": "Kern County (California, USA)", "positive": "SLEV", "title": "YTD Positive Mosquito Pool"}}, {"geometry": {"type": "Point", "coordinates": [-118.83924046699325, 35.20063874715115]}, "type": "Feature", "properties": {"date": "08/02/2016", "city": "Arvin", "region": "Kern County (California, USA)", "positive": "SLEV", "title": "YTD Positive Mosquito Pool"}}, {"geometry": {"type": "Point", "coordinates": [-119.40928289978878, 35.35654689859985]}, "type": "Feature", "properties": {"date": "08/03/2016", "city": "Bakersfield", "region": "Kern County (California, USA)", "positive": "SLEV", "title": "YTD Positive Mosquito Pool"}}, {"geometry": {"type": "Point", "coordinates": [-119.2728852067079, 35.61346262707397]}, "type": "Feature", "properties": {"date": "08/04/2016", "city": "Wasco", "region": "Kern County (California, USA)", "positive": "SLEV", "title": "YTD Positive Mosquito Pool"}}, {"geometry": {"type": "Point", "coordinates": [-116.22318726135238, 33.59165426013615]}, "type": "Feature", "properties": {"date": "07/30/2016", "city": "Indio", "region": "Riverside County (California, USA)", "positive": "SLEV", "title": "YTD Positive Mosquito Pool"}}, {"geometry": {"type": "Point", "coordinates": [-119.14722771952641, 35.41524392558691]}, "type": "Feature", "properties": {"date": "08/05/2016", "city": "Bakersfield", "region": "Kern County (California, USA)", "positive": "SLEV", "title": "YTD Positive Mosquito Pool"}}, {"geometry": {"type": "Point", "coordinates": [-119.15572374826623, 35.390700384202965]}, "type": "Feature", "properties": {"date": "08/05/2016", "city": "Bakersfield", "region": "Kern County (California, USA)", "positive": "SLEV", "title": "YTD Positive Mosquito Pool"}}, {"geometry": {"type": "Point", "coordinates": [-118.83598381620025, 35.20257381613683]}, "type": "Feature", "properties": {"date": "08/09/2016", "city": "Arvin", "region": "Kern County (California, USA)", "positive": "SLEV", "title": "YTD Positive Mosquito Pool"}}, {"geometry": {"type": "Point", "coordinates": [-119.04192393060828, 35.23998912509151]}, "type": "Feature", "properties": {"date": "08/09/2016", "city": "Bakersfield", "region": "Kern County (California, USA)", "positive": "SLEV", "title": "YTD Positive Mosquito Pool"}}, {"geometry": {"type": "Point", "coordinates": [-118.79776375490593, 35.194741385255696]}, "type": "Feature", "properties": {"date": "08/09/2016", "city": "Arvin", "region": "Kern County (California, USA)", "positive": "SLEV", "title": "YTD Positive Mosquito Pool"}}, {"geometry": {"type": "Point", "coordinates": [-119.39282581087932, 35.40118071168211]}, "type": "Feature", "properties": {"date": "08/09/2016", "city": "Buttonwillow", "region": "Kern County (California, USA)", "positive": "SLEV", "title": "YTD Positive Mosquito Pool"}}, {"geometry": {"type": "Point", "coordinates": [-116.04634957364594, 33.52847848047063]}, "type": "Feature", "properties": {"date": "08/09/2016", "city": "Mecca", "region": "Riverside County (California, USA)", "positive": "SLEV", "title": "YTD Positive Mosquito Pool"}}, {"geometry": {"type": "Point", "coordinates": [-116.0304623096501, 33.53290025987126]}, "type": "Feature", "properties": {"date": "08/09/2016", "city": "Mecca", "region": "Riverside County (California, USA)", "positive": "SLEV", "title": "YTD Positive Mosquito Pool"}}, {"geometry": {"type": "Point", "coordinates": [-116.03778388187669, 33.5335644653802]}, "type": "Feature", "properties": {"date": "08/09/2016", "city": "Mecca", "region": "Riverside County (California, USA)", "positive": "SLEV", "title": "YTD Positive Mosquito Pool"}}, {"geometry": {"type": "Point", "coordinates": [-116.03234492520495, 33.533631356502205]}, "type": "Feature", "properties": {"date": "08/09/2016", "city": "Mecca", "region": "Riverside County (California, USA)", "positive": "SLEV", "title": "YTD Positive Mosquito Pool"}}, {"geometry": {"type": "Point", "coordinates": [-116.09352108193234, 33.47055600901545]}, "type": "Feature", "properties": {"date": "08/09/2016", "city": "Mecca", "region": "Riverside County (California, USA)", "positive": "SLEV", "title": "YTD Positive Mosquito Pool"}}, {"geometry": {"type": "Point", "coordinates": [-119.40468830460422, 35.35256843491407]}, "type": "Feature", "properties": {"date": "08/10/2016", "city": "Bakersfield", "region": "Kern County (California, USA)", "positive": "SLEV", "title": "YTD Positive Mosquito Pool"}}, {"geometry": {"type": "Point", "coordinates": [-119.36083034741212, 35.50372161958996]}, "type": "Feature", "properties": {"date": "08/11/2016", "city": "Shafter", "region": "Kern County (California, USA)", "positive": "SLEV", "title": "YTD Positive Mosquito Pool"}}, {"geometry": {"type": "Point", "coordinates": [-118.01963802903305, 33.933679617960586]}, "type": "Feature", "properties": {"date": "08/10/2016", "city": "Whittier", "region": "Los Angeles County (California, USA)", "positive": "SLEV", "title": "YTD Positive Mosquito Pool"}}, {"geometry": {"type": "Point", "coordinates": [-119.2323041636416, 35.78238177293922]}, "type": "Feature", "properties": {"date": "08/12/2016", "city": "Delano", "region": "Kern County (California, USA)", "positive": "SLEV", "title": "YTD Positive Mosquito Pool"}}, {"geometry": {"type": "Point", "coordinates": [-119.26667616251605, 35.89015403954707]}, "type": "Feature", "properties": {"date": "08/12/2016", "city": "Earlimart", "region": "Tulare County (California, USA)", "positive": "SLEV", "title": "YTD Positive Mosquito Pool"}}, {"geometry": {"type": "Point", "coordinates": [-119.23153474578832, 35.67560518820736]}, "type": "Feature", "properties": {"date": "08/16/2016", "city": "McFarland", "region": "Kern County (California, USA)", "positive": "SLEV", "title": "YTD Positive Mosquito Pool"}}, {"geometry": {"type": "Point", "coordinates": [-119.39267471227085, 35.40461323579488]}, "type": "Feature", "properties": {"date": "08/16/2016", "city": "Buttonwillow", "region": "Kern County (California, USA)", "positive": "SLEV", "title": "YTD Positive Mosquito Pool"}}, {"geometry": {"type": "Point", "coordinates": [-119.39158572516304, 35.40298903563532]}, "type": "Feature", "properties": {"date": "08/16/2016", "city": "Buttonwillow", "region": "Kern County (California, USA)", "positive": "SLEV", "title": "YTD Positive Mosquito Pool"}}, {"geometry": {"type": "Point", "coordinates": [-117.97620022780943, 33.91276395987752]}, "type": "Feature", "properties": {"date": "08/16/2016", "city": "La Mirada", "region": "Los Angeles County (California, USA)", "positive": "SLEV", "title": "YTD Positive Mosquito Pool"}}, {"geometry": {"type": "Point", "coordinates": [-117.90440736154824, 33.77167383323783]}, "type": "Feature", "properties": {"date": "08/11/2016", "city": "Garden Grove", "region": "Orange County (California, USA)", "positive": "SLEV", "title": "YTD Positive Mosquito Pool"}}, {"geometry": {"type": "Point", "coordinates": [-117.90861480705786, 33.77316685587959]}, "type": "Feature", "properties": {"date": "08/11/2016", "city": "Garden Grove", "region": "Orange County (California, USA)", "positive": "SLEV", "title": "YTD Positive Mosquito Pool"}}, {"geometry": {"type": "Point", "coordinates": [-119.58116832094254, 35.76419471181246]}, "type": "Feature", "properties": {"date": "08/23/2016", "city": "Lost Hills", "region": "Kern County (California, USA)", "positive": "SLEV", "title": "YTD Positive Mosquito Pool"}}, {"geometry": {"type": "Point", "coordinates": [-116.03033513000473, 33.5281329092569]}, "type": "Feature", "properties": {"date": "08/23/2016", "city": "Mecca", "region": "Riverside County (California, USA)", "positive": "SLEV", "title": "YTD Positive Mosquito Pool"}}, {"geometry": {"type": "Point", "coordinates": [-116.09584660122785, 33.47306038871847]}, "type": "Feature", "properties": {"date": "08/23/2016", "city": "Mecca", "region": "Riverside County (California, USA)", "positive": "SLEV", "title": "YTD Positive Mosquito Pool"}}, {"geometry": {"type": "Point", "coordinates": [-116.0975407391345, 33.528196727175505]}, "type": "Feature", "properties": {"date": "08/23/2016", "city": "Mecca", "region": "Riverside County (California, USA)", "positive": "SLEV", "title": "YTD Positive Mosquito Pool"}}, {"geometry": {"type": "Point", "coordinates": [-116.09234445602054, 33.47648571366407]}, "type": "Feature", "properties": {"date": "08/23/2016", "city": "Thermal", "region": "Riverside County (California, USA)", "positive": "SLEV", "title": "YTD Positive Mosquito Pool"}}, {"geometry": {"type": "Point", "coordinates": [-116.1113073135117, 33.53867595157957]}, "type": "Feature", "properties": {"date": "08/23/2016", "city": "Mecca", "region": "Riverside County (California, USA)", "positive": "SLEV", "title": "YTD Positive Mosquito Pool"}}, {"geometry": {"type": "Point", "coordinates": [-116.11232218694526, 33.53685677398172]}, "type": "Feature", "properties": {"date": "08/23/2016", "city": "Mecca", "region": "Riverside County (California, USA)", "positive": "SLEV", "title": "YTD Positive Mosquito Pool"}}, {"geometry": {"type": "Point", "coordinates": [-116.08022911586231, 33.54070699154254]}, "type": "Feature", "properties": {"date": "08/23/2016", "city": "Mecca", "region": "Riverside County (California, USA)", "positive": "SLEV", "title": "YTD Positive Mosquito Pool"}}, {"geometry": {"type": "Point", "coordinates": [-116.07418646130796, 33.527577677728324]}, "type": "Feature", "properties": {"date": "08/23/2016", "city": "Mecca", "region": "Riverside County (California, USA)", "positive": "SLEV", "title": "YTD Positive Mosquito Pool"}}, {"geometry": {"type": "Point", "coordinates": [-116.22331149574984, 33.598530298158835]}, "type": "Feature", "properties": {"date": "08/23/2016", "city": "Thermal", "region": "Riverside County (California, USA)", "positive": "SLEV", "title": "YTD Positive Mosquito Pool"}}, {"geometry": {"type": "Point", "coordinates": [-116.03565823073063, 33.53605997831603]}, "type": "Feature", "properties": {"date": "08/23/2016", "city": "Mecca", "region": "Riverside County (California, USA)", "positive": "SLEV", "title": "YTD Positive Mosquito Pool"}}, {"geometry": {"type": "Point", "coordinates": [-116.0305257448411, 33.52232894667792]}, "type": "Feature", "properties": {"date": "08/23/2016", "city": "Mecca", "region": "Riverside County (California, USA)", "positive": "SLEV", "title": "YTD Positive Mosquito Pool"}}, {"geometry": {"type": "Point", "coordinates": [-116.06170089234756, 33.53434402737415]}, "type": "Feature", "properties": {"date": "08/23/2016", "city": "Mecca", "region": "Riverside County (California, USA)", "positive": "SLEV", "title": "YTD Positive Mosquito Pool"}}, {"geometry": {"type": "Point", "coordinates": [-116.05745062054237, 33.52947968701281]}, "type": "Feature", "properties": {"date": "08/23/2016", "city": "Mecca", "region": "Riverside County (California, USA)", "positive": "SLEV", "title": "YTD Positive Mosquito Pool"}}, {"geometry": {"type": "Point", "coordinates": [-116.04571758416574, 33.53511605306364]}, "type": "Feature", "properties": {"date": "08/23/2016", "city": "Mecca", "region": "Riverside County (California, USA)", "positive": "SLEV", "title": "YTD Positive Mosquito Pool"}}, {"geometry": {"type": "Point", "coordinates": [-116.04468994764926, 33.535065643094185]}, "type": "Feature", "properties": {"date": "08/23/2016", "city": "Mecca", "region": "Riverside County (California, USA)", "positive": "SLEV", "title": "YTD Positive Mosquito Pool"}}, {"geometry": {"type": "Point", "coordinates": [-119.28585779039678, 35.76411868313049]}, "type": "Feature", "properties": {"date": "08/25/2016", "city": "Delano", "region": "Kern County (California, USA)", "positive": "SLEV", "title": "YTD Positive Mosquito Pool"}}, {"geometry": {"type": "Point", "coordinates": [-118.91948551883824, 35.26723707388168]}, "type": "Feature", "properties": {"date": "08/30/2016", "city": "Lamont", "region": "Kern County (California, USA)", "positive": "SLEV", "title": "YTD Positive Mosquito Pool"}}, {"geometry": {"type": "Point", "coordinates": [-119.6241876885369, 35.72413287122461]}, "type": "Feature", "properties": {"date": "08/30/2016", "city": "Lost Hills", "region": "Kern County (California, USA)", "positive": "SLEV", "title": "YTD Positive Mosquito Pool"}}, {"geometry": {"type": "Point", "coordinates": [-119.62540399664846, 35.73445714618277]}, "type": "Feature", "properties": {"date": "08/30/2016", "city": "Lost Hills", "region": "Kern County (California, USA)", "positive": "SLEV", "title": "YTD Positive Mosquito Pool"}}, {"geometry": {"type": "Point", "coordinates": [-116.03270232779707, 33.53109075570349]}, "type": "Feature", "properties": {"date": "08/30/2016", "city": "Mecca", "region": "Riverside County (California, USA)", "positive": "SLEV", "title": "YTD Positive Mosquito Pool"}}, {"geometry": {"type": "Point", "coordinates": [-116.04103330040178, 33.5337883463219]}, "type": "Feature", "properties": {"date": "08/30/2016", "city": "Mecca", "region": "Riverside County (California, USA)", "positive": "SLEV", "title": "YTD Positive Mosquito Pool"}}, {"geometry": {"type": "Point", "coordinates": [-116.04192151256838, 33.529578562491565]}, "type": "Feature", "properties": {"date": "08/30/2016", "city": "Mecca", "region": "Riverside County (California, USA)", "positive": "SLEV", "title": "YTD Positive Mosquito Pool"}}, {"geometry": {"type": "Point", "coordinates": [-116.0435000582857, 33.537217595149194]}, "type": "Feature", "properties": {"date": "08/30/2016", "city": "Mecca", "region": "Riverside County (California, USA)", "positive": "SLEV", "title": "YTD Positive Mosquito Pool"}}, {"geometry": {"type": "Point", "coordinates": [-116.04790027414892, 33.53069826348434]}, "type": "Feature", "properties": {"date": "08/30/2016", "city": "Mecca", "region": "Riverside County (California, USA)", "positive": "SLEV", "title": "YTD Positive Mosquito Pool"}}, {"geometry": {"type": "Point", "coordinates": [-116.04741597988557, 33.53528428152805]}, "type": "Feature", "properties": {"date": "08/30/2016", "city": "Mecca", "region": "Riverside County (California, USA)", "positive": "SLEV", "title": "YTD Positive Mosquito Pool"}}, {"geometry": {"type": "Point", "coordinates": [-116.1116459852265, 33.53728875954016]}, "type": "Feature", "properties": {"date": "08/30/2016", "city": "Mecca", "region": "Riverside County (California, USA)", "positive": "SLEV", "title": "YTD Positive Mosquito Pool"}}, {"geometry": {"type": "Point", "coordinates": [-116.05788781267711, 33.538513156710145]}, "type": "Feature", "properties": {"date": "08/30/2016", "city": "Mecca", "region": "Riverside County (California, USA)", "positive": "SLEV", "title": "YTD Positive Mosquito Pool"}}, {"geometry": {"type": "Point", "coordinates": [-116.07545334659237, 33.536245981477755]}, "type": "Feature", "properties": {"date": "08/30/2016", "city": "Mecca", "region": "Riverside County (California, USA)", "positive": "SLEV", "title": "YTD Positive Mosquito Pool"}}, {"geometry": {"type": "Point", "coordinates": [-116.09925945452301, 33.52031899935477]}, "type": "Feature", "properties": {"date": "08/30/2016", "city": "Mecca", "region": "Riverside County (California, USA)", "positive": "SLEV", "title": "YTD Positive Mosquito Pool"}}, {"geometry": {"type": "Point", "coordinates": [-116.02478122215135, 33.52879430203551]}, "type": "Feature", "properties": {"date": "08/30/2016", "city": "Mecca", "region": "Riverside County (California, USA)", "positive": "SLEV", "title": "YTD Positive Mosquito Pool"}}, {"geometry": {"type": "Point", "coordinates": [-116.02477862565256, 33.52066603519262]}, "type": "Feature", "properties": {"date": "08/30/2016", "city": "Mecca", "region": "Riverside County (California, USA)", "positive": "SLEV", "title": "YTD Positive Mosquito Pool"}}, {"geometry": {"type": "Point", "coordinates": [-116.05883926127845, 33.52756268734162]}, "type": "Feature", "properties": {"date": "08/30/2016", "city": "Mecca", "region": "Riverside County (California, USA)", "positive": "SLEV", "title": "YTD Positive Mosquito Pool"}}, {"geometry": {"type": "Point", "coordinates": [-116.05754587735552, 33.53355609543481]}, "type": "Feature", "properties": {"date": "08/30/2016", "city": "Mecca", "region": "Riverside County (California, USA)", "positive": "SLEV", "title": "YTD Positive Mosquito Pool"}}, {"geometry": {"type": "Point", "coordinates": [-116.05893493565497, 33.53416873265504]}, "type": "Feature", "properties": {"date": "08/30/2016", "city": "Mecca", "region": "Riverside County (California, USA)", "positive": "SLEV", "title": "YTD Positive Mosquito Pool"}}, {"geometry": {"type": "Point", "coordinates": [-116.12506511494063, 33.53805909491695]}, "type": "Feature", "properties": {"date": "09/02/2016", "city": "Indio", "region": "Riverside County (California, USA)", "positive": "SLEV", "title": "YTD Positive Mosquito Pool"}}, {"geometry": {"type": "Point", "coordinates": [-116.09008124032286, 33.55228665503618]}, "type": "Feature", "properties": {"date": "09/07/2016", "city": "Mecca", "region": "Riverside County (California, USA)", "positive": "SLEV", "title": "YTD Positive Mosquito Pool"}}, {"geometry": {"type": "Point", "coordinates": [-116.06451886935822, 33.53850849568206]}, "type": "Feature", "properties": {"date": "09/07/2016", "city": "Mecca", "region": "Riverside County (California, USA)", "positive": "SLEV", "title": "YTD Positive Mosquito Pool"}}, {"geometry": {"type": "Point", "coordinates": [-116.05919047487052, 33.544882656494735]}, "type": "Feature", "properties": {"date": "09/07/2016", "city": "Mecca", "region": "Riverside County (California, USA)", "positive": "SLEV", "title": "YTD Positive Mosquito Pool"}}, {"geometry": {"type": "Point", "coordinates": [-116.03078750493924, 33.52959955705746]}, "type": "Feature", "properties": {"date": "09/07/2016", "city": "Mecca", "region": "Riverside County (California, USA)", "positive": "SLEV", "title": "YTD Positive Mosquito Pool"}}, {"geometry": {"type": "Point", "coordinates": [-116.02721741605136, 33.524664013332796]}, "type": "Feature", "properties": {"date": "09/07/2016", "city": "Mecca", "region": "Riverside County (California, USA)", "positive": "SLEV", "title": "YTD Positive Mosquito Pool"}}, {"geometry": {"type": "Point", "coordinates": [-116.03196824739574, 33.52978145054306]}, "type": "Feature", "properties": {"date": "09/07/2016", "city": "Mecca", "region": "Riverside County (California, USA)", "positive": "SLEV", "title": "YTD Positive Mosquito Pool"}}, {"geometry": {"type": "Point", "coordinates": [-116.22476187250199, 33.596416352661834]}, "type": "Feature", "properties": {"date": "09/07/2016", "city": "Thermal", "region": "Riverside County (California, USA)", "positive": "SLEV", "title": "YTD Positive Mosquito Pool"}}, {"geometry": {"type": "Point", "coordinates": [-116.08027452781035, 33.53570582176375]}, "type": "Feature", "properties": {"date": "09/07/2016", "city": "Mecca", "region": "Riverside County (California, USA)", "positive": "SLEV", "title": "YTD Positive Mosquito Pool"}}, {"geometry": {"type": "Point", "coordinates": [-116.0745044365577, 33.544606690286244]}, "type": "Feature", "properties": {"date": "09/07/2016", "city": "Mecca", "region": "Riverside County (California, USA)", "positive": "SLEV", "title": "YTD Positive Mosquito Pool"}}, {"geometry": {"type": "Point", "coordinates": [-116.07452486469526, 33.53663179236275]}, "type": "Feature", "properties": {"date": "09/07/2016", "city": "Mecca", "region": "Riverside County (California, USA)", "positive": "SLEV", "title": "YTD Positive Mosquito Pool"}}, {"geometry": {"type": "Point", "coordinates": [-116.07642360192953, 33.53898798989594]}, "type": "Feature", "properties": {"date": "09/07/2016", "city": "Mecca", "region": "Riverside County (California, USA)", "positive": "SLEV", "title": "YTD Positive Mosquito Pool"}}, {"geometry": {"type": "Point", "coordinates": [-116.08016390999177, 33.52364168227566]}, "type": "Feature", "properties": {"date": "09/07/2016", "city": "Mecca", "region": "Riverside County (California, USA)", "positive": "SLEV", "title": "YTD Positive Mosquito Pool"}}, {"geometry": {"type": "Point", "coordinates": [-116.1606863387216, 33.61683867626198]}, "type": "Feature", "properties": {"date": "09/07/2016", "city": "Thermal", "region": "Riverside County (California, USA)", "positive": "SLEV", "title": "YTD Positive Mosquito Pool"}}, {"geometry": {"type": "Point", "coordinates": [-116.03082267107138, 33.52494371617405]}, "type": "Feature", "properties": {"date": "09/07/2016", "city": "Mecca", "region": "Riverside County (California, USA)", "positive": "SLEV", "title": "YTD Positive Mosquito Pool"}}, {"geometry": {"type": "Point", "coordinates": [-116.03264511963243, 33.53016943108893]}, "type": "Feature", "properties": {"date": "09/07/2016", "city": "Mecca", "region": "Riverside County (California, USA)", "positive": "SLEV", "title": "YTD Positive Mosquito Pool"}}, {"geometry": {"type": "Point", "coordinates": [-116.03032915606087, 33.52896063448588]}, "type": "Feature", "properties": {"date": "09/07/2016", "city": "Mecca", "region": "Riverside County (California, USA)", "positive": "SLEV", "title": "YTD Positive Mosquito Pool"}}, {"geometry": {"type": "Point", "coordinates": [-116.03009449613074, 33.52695375594534]}, "type": "Feature", "properties": {"date": "09/07/2016", "city": "Mecca", "region": "Riverside County (California, USA)", "positive": "SLEV", "title": "YTD Positive Mosquito Pool"}}, {"geometry": {"type": "Point", "coordinates": [-119.8301217768372, 36.29187218434575]}, "type": "Feature", "properties": {"date": "09/07/2016", "city": "Lemoore", "region": "Kings County (California, USA)", "positive": "SLEV", "title": "YTD Positive Mosquito Pool"}}, {"geometry": {"type": "Point", "coordinates": [-119.79189003825427, 36.31694030430762]}, "type": "Feature", "properties": {"date": "09/07/2016", "city": "Lemoore", "region": "Kings County (California, USA)", "positive": "SLEV", "title": "YTD Positive Mosquito Pool"}}, {"geometry": {"type": "Point", "coordinates": [-116.04570945551734, 33.534861372914506]}, "type": "Feature", "properties": {"date": "09/13/2016", "city": "Mecca", "region": "Riverside County (California, USA)", "positive": "SLEV", "title": "YTD Positive Mosquito Pool"}}, {"geometry": {"type": "Point", "coordinates": [-119.76753933302957, 36.385492426380395]}, "type": "Feature", "properties": {"date": "09/13/2016", "city": "Lemoore", "region": "Kings County (California, USA)", "positive": "SLEV", "title": "YTD Positive Mosquito Pool"}}, {"geometry": {"type": "Point", "coordinates": [-118.9218392128072, 35.26659525329629]}, "type": "Feature", "properties": {"date": "09/20/2016", "city": "Lamont", "region": "Kern County (California, USA)", "positive": "SLEV", "title": "YTD Positive Mosquito Pool"}}, {"geometry": {"type": "Point", "coordinates": [-118.95636440983414, 35.375166607553034]}, "type": "Feature", "properties": {"date": "09/20/2016", "city": "Bakersfield", "region": "Kern County (California, USA)", "positive": "SLEV", "title": "YTD Positive Mosquito Pool"}}, {"geometry": {"type": "Point", "coordinates": [-119.0897326566142, 35.471402565707145]}, "type": "Feature", "properties": {"date": "09/20/2016", "city": "Bakersfield", "region": "Kern County (California, USA)", "positive": "SLEV", "title": "YTD Positive Mosquito Pool"}}, {"geometry": {"type": "Point", "coordinates": [-118.94087927115102, 35.44079791159121]}, "type": "Feature", "properties": {"date": "09/20/2016", "city": "Bakersfield", "region": "Kern County (California, USA)", "positive": "SLEV", "title": "YTD Positive Mosquito Pool"}}, {"geometry": {"type": "Point", "coordinates": [-116.07648458210323, 33.53708832518237]}, "type": "Feature", "properties": {"date": "09/20/2016", "city": "Mecca", "region": "Riverside County (California, USA)", "positive": "SLEV", "title": "YTD Positive Mosquito Pool"}}, {"geometry": {"type": "Point", "coordinates": [-116.03118332671538, 33.527308623534815]}, "type": "Feature", "properties": {"date": "09/20/2016", "city": "Mecca", "region": "Riverside County (California, USA)", "positive": "SLEV", "title": "YTD Positive Mosquito Pool"}}, {"geometry": {"type": "Point", "coordinates": [-116.09557866900778, 33.47060236302097]}, "type": "Feature", "properties": {"date": "09/20/2016", "city": "Mecca", "region": "Riverside County (California, USA)", "positive": "SLEV", "title": "YTD Positive Mosquito Pool"}}, {"geometry": {"type": "Point", "coordinates": [-116.09717691131036, 33.46934356239375]}, "type": "Feature", "properties": {"date": "09/20/2016", "city": "Mecca", "region": "Riverside County (California, USA)", "positive": "SLEV", "title": "YTD Positive Mosquito Pool"}}, {"geometry": {"type": "Point", "coordinates": [-116.07344143352651, 33.581156157501965]}, "type": "Feature", "properties": {"date": "09/22/2016", "city": "Mecca", "region": "Riverside County (California, USA)", "positive": "SLEV", "title": "YTD Positive Mosquito Pool"}}, {"geometry": {"type": "Point", "coordinates": [-119.89597244405098, 36.34850023697444]}, "type": "Feature", "properties": {"date": "09/20/2016", "city": "Lemoore NAS", "region": "Kings County (California, USA)", "positive": "SLEV", "title": "YTD Positive Mosquito Pool"}}, {"geometry": {"type": "Point", "coordinates": [-118.93547561041602, 35.28550575895113]}, "type": "Feature", "properties": {"date": "09/22/2016", "city": "Lamont", "region": "Kern County (California, USA)", "positive": "SLEV", "title": "YTD Positive Mosquito Pool"}}, {"geometry": {"type": "Point", "coordinates": [-119.33162686016588, 35.59575671153476]}, "type": "Feature", "properties": {"date": "09/22/2016", "city": "Wasco", "region": "Kern County (California, USA)", "positive": "SLEV", "title": "YTD Positive Mosquito Pool"}}, {"geometry": {"type": "Point", "coordinates": [-119.25853419174216, 35.502060788119024]}, "type": "Feature", "properties": {"date": "09/22/2016", "city": "Shafter", "region": "Kern County (California, USA)", "positive": "SLEV", "title": "YTD Positive Mosquito Pool"}}, {"geometry": {"type": "Point", "coordinates": [-119.36464263352255, 35.504273126957415]}, "type": "Feature", "properties": {"date": "09/22/2016", "city": "Shafter", "region": "Kern County (California, USA)", "positive": "SLEV", "title": "YTD Positive Mosquito Pool"}}, {"geometry": {"type": "Point", "coordinates": [-119.08767354412929, 35.428986025771266]}, "type": "Feature", "properties": {"date": "09/23/2016", "city": "Bakersfield", "region": "Kern County (California, USA)", "positive": "SLEV", "title": "YTD Positive Mosquito Pool"}}, {"geometry": {"type": "Point", "coordinates": [-119.23223784324657, 35.24551476721223]}, "type": "Feature", "properties": {"date": "09/23/2016", "city": "Bakersfield", "region": "Kern County (California, USA)", "positive": "SLEV", "title": "YTD Positive Mosquito Pool"}}, {"geometry": {"type": "Point", "coordinates": [-120.25759551504892, 36.67190199589633]}, "type": "Feature", "properties": {"date": "09/27/2016", "city": "Tranquillity", "region": "Fresno County (California, USA)", "positive": "SLEV", "title": "YTD Positive Mosquito Pool"}}, {"geometry": {"type": "Point", "coordinates": [-120.18497224540252, 36.99119090121017]}, "type": "Feature", "properties": {"date": "09/21/2016", "city": "MADERA", "region": "Madera County (California, USA)", "positive": "SLEV", "title": "YTD Positive Mosquito Pool"}}, {"geometry": {"type": "Point", "coordinates": [-120.04596232843707, 36.925477368069735]}, "type": "Feature", "properties": {"date": "09/27/2016", "city": "Madera", "region": "Madera County (California, USA)", "positive": "SLEV", "title": "YTD Positive Mosquito Pool"}}, {"geometry": {"type": "Point", "coordinates": [-116.09426454805596, 33.4989916353219]}, "type": "Feature", "properties": {"date": "10/04/2016", "city": "Mecca", "region": "Riverside County (California, USA)", "positive": "SLEV", "title": "YTD Positive Mosquito Pool"}}, {"geometry": {"type": "Point", "coordinates": [-116.09134411351268, 33.48572438397722]}, "type": "Feature", "properties": {"date": "10/04/2016", "city": "Thermal", "region": "Riverside County (California, USA)", "positive": "SLEV", "title": "YTD Positive Mosquito Pool"}}, {"geometry": {"type": "Point", "coordinates": [-116.07792076388588, 33.460785844961826]}, "type": "Feature", "properties": {"date": "10/04/2016", "city": "Mecca", "region": "Riverside County (California, USA)", "positive": "SLEV", "title": "YTD Positive Mosquito Pool"}}, {"geometry": {"type": "Point", "coordinates": [-115.96125845369892, 33.521785534033775]}, "type": "Feature", "properties": {"date": "10/04/2016", "city": "Mecca", "region": "Riverside County (California, USA)", "positive": "SLEV", "title": "YTD Positive Mosquito Pool"}}, {"geometry": {"type": "Point", "coordinates": [-116.06435997097579, 33.531381469134814]}, "type": "Feature", "properties": {"date": "10/04/2016", "city": "Mecca", "region": "Riverside County (California, USA)", "positive": "SLEV", "title": "YTD Positive Mosquito Pool"}}, {"geometry": {"type": "Point", "coordinates": [-120.06728299415732, 36.924989636452864]}, "type": "Feature", "properties": {"date": "10/12/2016", "city": "Madera", "region": "Madera County (California, USA)", "positive": "SLEV", "title": "YTD Positive Mosquito Pool"}}, {"geometry": {"type": "Point", "coordinates": [-116.09104293113379, 33.52336031959178]}, "type": "Feature", "properties": {"date": "10/18/2016", "city": "Mecca", "region": "Riverside County (California, USA)", "positive": "SLEV", "title": "YTD Positive Mosquito Pool"}}, {"geometry": {"type": "Point", "coordinates": [-116.25483857701107, 33.668447435998395]}, "type": "Feature", "properties": {"date": "10/20/2016", "city": "La Quinta", "region": "Riverside County (California, USA)", "positive": "SLEV", "title": "YTD Positive Mosquito Pool"}}, {"geometry": {"type": "Point", "coordinates": [-116.24606413661404, 33.64402722088243]}, "type": "Feature", "properties": {"date": "11/10/2016", "city": "La Quinta", "region": "Riverside County (California, USA)", "positive": "SLEV", "title": "YTD Positive Mosquito Pool"}}]}