{"type": "FeatureCollection", "features": [{"geometry": {"type": "Point", "coordinates": [-119.0671657646862, 35.34270058461559]}, "type": "Feature", "properties": {"date": "06/06/2018", "city": "Bakersfield", "region": "Kern County (California, USA)", "positive": "SLEV", "title": "YTD Positive Mosquito Pool"}}, {"geometry": {"type": "Point", "coordinates": [-119.07659108262109, 35.32910287166798]}, "type": "Feature", "properties": {"date": "06/06/2018", "city": "Bakersfield", "region": "Kern County (California, USA)", "positive": "SLEV", "title": "YTD Positive Mosquito Pool"}}, {"geometry": {"type": "Point", "coordinates": [-119.30854498138116, 36.345739217855495]}, "type": "Feature", "properties": {"date": "06/06/2018", "city": "Visalia", "region": "Tulare County (California, USA)", "positive": "SLEV", "title": "YTD Positive Mosquito Pool"}}, {"geometry": {"type": "Point", "coordinates": [-119.32394215166181, 36.30389334790996]}, "type": "Feature", "properties": {"date": "06/05/2018", "city": "Visalia", "region": "Tulare County (California, USA)", "positive": "SLEV", "title": "YTD Positive Mosquito Pool"}}, {"geometry": {"type": "Point", "coordinates": [-119.07136134703714, 35.326872234373546]}, "type": "Feature", "properties": {"date": "06/13/2018", "city": "Bakersfield", "region": "Kern County (California, USA)", "positive": "SLEV", "title": "YTD Positive Mosquito Pool"}}, {"geometry": {"type": "Point", "coordinates": [-119.10917121834775, 35.313402768158745]}, "type": "Feature", "properties": {"date": "06/14/2018", "city": "Bakersfield", "region": "Kern County (California, USA)", "positive": "SLEV", "title": "YTD Positive Mosquito Pool"}}, {"geometry": {"type": "Point", "coordinates": [-119.30283783810339, 36.303356722797375]}, "type": "Feature", "properties": {"date": "06/14/2018", "city": "Visalia", "region": "Tulare County (California, USA)", "positive": "SLEV", "title": "YTD Positive Mosquito Pool"}}, {"geometry": {"type": "Point", "coordinates": [-119.30155870034717, 36.30069148973197]}, "type": "Feature", "properties": {"date": "06/14/2018", "city": "Visalia", "region": "Tulare County (California, USA)", "positive": "SLEV", "title": "YTD Positive Mosquito Pool"}}, {"geometry": {"type": "Point", "coordinates": [-119.10466192643568, 35.33375222960437]}, "type": "Feature", "properties": {"date": "06/15/2018", "city": "Bakersfield", "region": "Kern County (California, USA)", "positive": "SLEV", "title": "YTD Positive Mosquito Pool"}}, {"geometry": {"type": "Point", "coordinates": [-119.77713703866317, 36.764559394791206]}, "type": "Feature", "properties": {"date": "06/13/2018", "city": null, "region": "Fresno County (California, USA)", "positive": "SLEV", "title": "YTD Positive Mosquito Pool"}}, {"geometry": {"type": "Point", "coordinates": [-119.29267846156252, 36.35259664821664]}, "type": "Feature", "properties": {"date": "06/19/2018", "city": "Visalia", "region": "Tulare County (California, USA)", "positive": "SLEV", "title": "YTD Positive Mosquito Pool"}}, {"geometry": {"type": "Point", "coordinates": [-119.07496358798008, 35.3430623442966]}, "type": "Feature", "properties": {"date": "06/20/2018", "city": "Bakersfield", "region": "Kern County (California, USA)", "positive": "SLEV", "title": "YTD Positive Mosquito Pool"}}, {"geometry": {"type": "Point", "coordinates": [-119.08082453764632, 35.34810391284101]}, "type": "Feature", "properties": {"date": "06/20/2018", "city": "Bakersfield", "region": "Kern County (California, USA)", "positive": "SLEV", "title": "YTD Positive Mosquito Pool"}}, {"geometry": {"type": "Point", "coordinates": [-119.0512084330766, 35.32945075715762]}, "type": "Feature", "properties": {"date": "06/20/2018", "city": "Bakersfield", "region": "Kern County (California, USA)", "positive": "SLEV", "title": "YTD Positive Mosquito Pool"}}, {"geometry": {"type": "Point", "coordinates": [-119.80530979777265, 36.77669818389062]}, "type": "Feature", "properties": {"date": "06/20/2018", "city": "Fresno", "region": "Fresno County (California, USA)", "positive": "SLEV", "title": "YTD Positive Mosquito Pool"}}, {"geometry": {"type": "Point", "coordinates": [-119.00797736310521, 35.33047026723893]}, "type": "Feature", "properties": {"date": "06/21/2018", "city": "Bakersfield", "region": "Kern County (California, USA)", "positive": "SLEV", "title": "YTD Positive Mosquito Pool"}}, {"geometry": {"type": "Point", "coordinates": [-119.33764555902987, 36.21658201855182]}, "type": "Feature", "properties": {"date": "06/20/2018", "city": "Tulare", "region": "Tulare County (California, USA)", "positive": "SLEV", "title": "YTD Positive Mosquito Pool"}}, {"geometry": {"type": "Point", "coordinates": [-119.29753804607752, 36.28808265092107]}, "type": "Feature", "properties": {"date": "06/26/2018", "city": "Visalia", "region": "Tulare County (California, USA)", "positive": "SLEV", "title": "YTD Positive Mosquito Pool"}}, {"geometry": {"type": "Point", "coordinates": [-119.29784662385427, 36.2954325463492]}, "type": "Feature", "properties": {"date": "06/26/2018", "city": "Visalia", "region": "Tulare County (California, USA)", "positive": "SLEV", "title": "YTD Positive Mosquito Pool"}}, {"geometry": {"type": "Point", "coordinates": [-119.41420580777744, 36.28812884220713]}, "type": "Feature", "properties": {"date": "06/26/2018", "city": "Visalia", "region": "Tulare County (California, USA)", "positive": "SLEV", "title": "YTD Positive Mosquito Pool"}}, {"geometry": {"type": "Point", "coordinates": [-119.29490183405457, 36.29922478655796]}, "type": "Feature", "properties": {"date": "06/26/2018", "city": "Visalia", "region": "Tulare County (California, USA)", "positive": "SLEV", "title": "YTD Positive Mosquito Pool"}}, {"geometry": {"type": "Point", "coordinates": [-119.29100954040489, 36.29040766869422]}, "type": "Feature", "properties": {"date": "06/26/2018", "city": "Visalia", "region": "Tulare County (California, USA)", "positive": "SLEV", "title": "YTD Positive Mosquito Pool"}}, {"geometry": {"type": "Point", "coordinates": [-119.05839173228392, 35.31932356068283]}, "type": "Feature", "properties": {"date": "06/27/2018", "city": "Bakersfield", "region": "Kern County (California, USA)", "positive": "SLEV", "title": "YTD Positive Mosquito Pool"}}, {"geometry": {"type": "Point", "coordinates": [-119.07833953943592, 35.3278770854831]}, "type": "Feature", "properties": {"date": "06/27/2018", "city": "Bakersfield", "region": "Kern County (California, USA)", "positive": "SLEV", "title": "YTD Positive Mosquito Pool"}}, {"geometry": {"type": "Point", "coordinates": [-119.09966978373407, 35.34791057720072]}, "type": "Feature", "properties": {"date": "06/27/2018", "city": "Bakersfield", "region": "Kern County (California, USA)", "positive": "SLEV", "title": "YTD Positive Mosquito Pool"}}, {"geometry": {"type": "Point", "coordinates": [-119.06765377353757, 35.34395359135524]}, "type": "Feature", "properties": {"date": "06/27/2018", "city": "Bakersfield", "region": "Kern County (California, USA)", "positive": "SLEV", "title": "YTD Positive Mosquito Pool"}}, {"geometry": {"type": "Point", "coordinates": [-119.30461955661569, 36.30475263992879]}, "type": "Feature", "properties": {"date": "06/26/2018", "city": "Visalia", "region": "Tulare County (California, USA)", "positive": "SLEV", "title": "YTD Positive Mosquito Pool"}}, {"geometry": {"type": "Point", "coordinates": [-119.32585031064714, 36.29456715477307]}, "type": "Feature", "properties": {"date": "06/26/2018", "city": "Visalia", "region": "Tulare County (California, USA)", "positive": "SLEV", "title": "YTD Positive Mosquito Pool"}}, {"geometry": {"type": "Point", "coordinates": [-119.28984325923783, 36.300546644288104]}, "type": "Feature", "properties": {"date": "06/26/2018", "city": "Visalia", "region": "Tulare County (California, USA)", "positive": "SLEV", "title": "YTD Positive Mosquito Pool"}}, {"geometry": {"type": "Point", "coordinates": [-119.30226738887302, 36.32485458030024]}, "type": "Feature", "properties": {"date": "06/26/2018", "city": "Visalia", "region": "Tulare County (California, USA)", "positive": "SLEV", "title": "YTD Positive Mosquito Pool"}}, {"geometry": {"type": "Point", "coordinates": [-119.30409560376393, 36.32376244570573]}, "type": "Feature", "properties": {"date": "06/26/2018", "city": "Visalia", "region": "Tulare County (California, USA)", "positive": "SLEV", "title": "YTD Positive Mosquito Pool"}}, {"geometry": {"type": "Point", "coordinates": [-119.1067955768711, 35.32065770527603]}, "type": "Feature", "properties": {"date": "06/28/2018", "city": "Bakersfield", "region": "Kern County (California, USA)", "positive": "SLEV", "title": "YTD Positive Mosquito Pool"}}, {"geometry": {"type": "Point", "coordinates": [-119.30107690388712, 36.344160569459085]}, "type": "Feature", "properties": {"date": "06/27/2018", "city": "Visalia", "region": "Tulare County (California, USA)", "positive": "SLEV", "title": "YTD Positive Mosquito Pool"}}, {"geometry": {"type": "Point", "coordinates": [-119.34536381136391, 36.30160615156658]}, "type": "Feature", "properties": {"date": "06/27/2018", "city": "Visalia", "region": "Tulare County (California, USA)", "positive": "SLEV", "title": "YTD Positive Mosquito Pool"}}, {"geometry": {"type": "Point", "coordinates": [-119.10806309422411, 35.33215905229702]}, "type": "Feature", "properties": {"date": "06/29/2018", "city": "Bakersfield", "region": "Kern County (California, USA)", "positive": "SLEV", "title": "YTD Positive Mosquito Pool"}}, {"geometry": {"type": "Point", "coordinates": [-119.35710054661423, 36.336065584622595]}, "type": "Feature", "properties": {"date": "06/29/2018", "city": "Visalia", "region": "Tulare County (California, USA)", "positive": "SLEV", "title": "YTD Positive Mosquito Pool"}}, {"geometry": {"type": "Point", "coordinates": [-119.30619460713122, 36.30663977967684]}, "type": "Feature", "properties": {"date": "06/29/2018", "city": "Visalia", "region": "Tulare County (California, USA)", "positive": "SLEV", "title": "YTD Positive Mosquito Pool"}}, {"geometry": {"type": "Point", "coordinates": [-119.3049809755278, 36.31993923408077]}, "type": "Feature", "properties": {"date": "06/29/2018", "city": "Visalia", "region": "Tulare County (California, USA)", "positive": "SLEV", "title": "YTD Positive Mosquito Pool"}}, {"geometry": {"type": "Point", "coordinates": [-116.06489461434015, 33.53696335272544]}, "type": "Feature", "properties": {"date": "07/03/2018", "city": "Mecca", "region": "Riverside County (California, USA)", "positive": "SLEV", "title": "YTD Positive Mosquito Pool"}}, {"geometry": {"type": "Point", "coordinates": [-116.03437722690127, 33.529828347899645]}, "type": "Feature", "properties": {"date": "07/03/2018", "city": "Mecca", "region": "Riverside County (California, USA)", "positive": "SLEV", "title": "YTD Positive Mosquito Pool"}}, {"geometry": {"type": "Point", "coordinates": [-116.05929000328145, 33.540703511394746]}, "type": "Feature", "properties": {"date": "07/03/2018", "city": "Mecca", "region": "Riverside County (California, USA)", "positive": "SLEV", "title": "YTD Positive Mosquito Pool"}}, {"geometry": {"type": "Point", "coordinates": [-119.73828597130398, 36.815048787348076]}, "type": "Feature", "properties": {"date": "07/03/2018", "city": "Fresno", "region": "Fresno County (California, USA)", "positive": "SLEV", "title": "YTD Positive Mosquito Pool"}}, {"geometry": {"type": "Point", "coordinates": [-119.06715402734025, 35.34043788949007]}, "type": "Feature", "properties": {"date": "07/05/2018", "city": "Bakersfield", "region": "Kern County (California, USA)", "positive": "SLEV", "title": "YTD Positive Mosquito Pool"}}, {"geometry": {"type": "Point", "coordinates": [-119.07430550616772, 35.33049388133955]}, "type": "Feature", "properties": {"date": "07/05/2018", "city": "Bakersfield", "region": "Kern County (California, USA)", "positive": "SLEV", "title": "YTD Positive Mosquito Pool"}}, {"geometry": {"type": "Point", "coordinates": [-119.10498776685108, 35.33246841872436]}, "type": "Feature", "properties": {"date": "07/05/2018", "city": "Bakersfield", "region": "Kern County (California, USA)", "positive": "SLEV", "title": "YTD Positive Mosquito Pool"}}, {"geometry": {"type": "Point", "coordinates": [-119.03775378905057, 35.35059832819979]}, "type": "Feature", "properties": {"date": "07/05/2018", "city": "Bakersfield", "region": "Kern County (California, USA)", "positive": "SLEV", "title": "YTD Positive Mosquito Pool"}}, {"geometry": {"type": "Point", "coordinates": [-119.28571042424446, 36.30783417402915]}, "type": "Feature", "properties": {"date": "07/03/2018", "city": "Visalia", "region": "Tulare County (California, USA)", "positive": "SLEV", "title": "YTD Positive Mosquito Pool"}}, {"geometry": {"type": "Point", "coordinates": [-119.32567745520873, 36.30301741298616]}, "type": "Feature", "properties": {"date": "07/03/2018", "city": "Visalia", "region": "Tulare County (California, USA)", "positive": "SLEV", "title": "YTD Positive Mosquito Pool"}}, {"geometry": {"type": "Point", "coordinates": [-119.30481336672193, 36.32056773484924]}, "type": "Feature", "properties": {"date": "07/03/2018", "city": "Visalia", "region": "Tulare County (California, USA)", "positive": "SLEV", "title": "YTD Positive Mosquito Pool"}}, {"geometry": {"type": "Point", "coordinates": [-119.08204703152275, 35.34899916742695]}, "type": "Feature", "properties": {"date": "07/06/2018", "city": "Bakersfield", "region": "Kern County (California, USA)", "positive": "SLEV", "title": "YTD Positive Mosquito Pool"}}, {"geometry": {"type": "Point", "coordinates": [-119.66844019057015, 36.756881173592085]}, "type": "Feature", "properties": {"date": "07/06/2018", "city": "Fresno", "region": "Fresno County (California, USA)", "positive": "SLEV", "title": "YTD Positive Mosquito Pool"}}, {"geometry": {"type": "Point", "coordinates": [-119.32601330579516, 36.35023870118722]}, "type": "Feature", "properties": {"date": "07/06/2018", "city": "Visalia", "region": "Tulare County (California, USA)", "positive": "SLEV", "title": "YTD Positive Mosquito Pool"}}, {"geometry": {"type": "Point", "coordinates": [-119.3054361864649, 36.304295141923184]}, "type": "Feature", "properties": {"date": "07/06/2018", "city": "Visalia", "region": "Tulare County (California, USA)", "positive": "SLEV", "title": "YTD Positive Mosquito Pool"}}, {"geometry": {"type": "Point", "coordinates": [-119.28314712698851, 36.30809854328252]}, "type": "Feature", "properties": {"date": "07/06/2018", "city": "Visalia", "region": "Tulare County (California, USA)", "positive": "SLEV", "title": "YTD Positive Mosquito Pool"}}, {"geometry": {"type": "Point", "coordinates": [-119.34324823793813, 36.31893702652792]}, "type": "Feature", "properties": {"date": "07/06/2018", "city": "Visalia", "region": "Tulare County (California, USA)", "positive": "SLEV", "title": "YTD Positive Mosquito Pool"}}, {"geometry": {"type": "Point", "coordinates": [-119.3250168277211, 36.30416285002059]}, "type": "Feature", "properties": {"date": "07/06/2018", "city": "Visalia", "region": "Tulare County (California, USA)", "positive": "SLEV", "title": "YTD Positive Mosquito Pool"}}, {"geometry": {"type": "Point", "coordinates": [-116.0754918023009, 33.5365902983958]}, "type": "Feature", "properties": {"date": "07/10/2018", "city": "Mecca", "region": "Riverside County (California, USA)", "positive": "SLEV", "title": "YTD Positive Mosquito Pool"}}, {"geometry": {"type": "Point", "coordinates": [-119.08481988141781, 35.23154925697656]}, "type": "Feature", "properties": {"date": "07/10/2018", "city": "Bakersfield", "region": "Kern County (California, USA)", "positive": "SLEV", "title": "YTD Positive Mosquito Pool"}}, {"geometry": {"type": "Point", "coordinates": [-119.76856295279359, 36.77292754299519]}, "type": "Feature", "properties": {"date": "07/10/2018", "city": "Fresno", "region": "Fresno County (California, USA)", "positive": "SLEV", "title": "YTD Positive Mosquito Pool"}}, {"geometry": {"type": "Point", "coordinates": [-119.32705800348528, 36.29133071411259]}, "type": "Feature", "properties": {"date": "07/10/2018", "city": "Visalia", "region": "Tulare County (California, USA)", "positive": "SLEV", "title": "YTD Positive Mosquito Pool"}}, {"geometry": {"type": "Point", "coordinates": [-119.28233785662529, 36.32120303986098]}, "type": "Feature", "properties": {"date": "07/10/2018", "city": "Visalia", "region": "Tulare County (California, USA)", "positive": "SLEV", "title": "YTD Positive Mosquito Pool"}}, {"geometry": {"type": "Point", "coordinates": [-119.30447324149013, 35.235120010263294]}, "type": "Feature", "properties": {"date": "07/11/2018", "city": "Taft", "region": "Kern County (California, USA)", "positive": "SLEV", "title": "YTD Positive Mosquito Pool"}}, {"geometry": {"type": "Point", "coordinates": [-119.30067319098272, 35.235365438435906]}, "type": "Feature", "properties": {"date": "07/11/2018", "city": "Taft", "region": "Kern County (California, USA)", "positive": "SLEV", "title": "YTD Positive Mosquito Pool"}}, {"geometry": {"type": "Point", "coordinates": [-119.07047694157768, 35.336764952549814]}, "type": "Feature", "properties": {"date": "07/11/2018", "city": "Bakersfield", "region": "Kern County (California, USA)", "positive": "SLEV", "title": "YTD Positive Mosquito Pool"}}, {"geometry": {"type": "Point", "coordinates": [-119.10219033185975, 35.34589435878816]}, "type": "Feature", "properties": {"date": "07/11/2018", "city": "Bakersfield", "region": "Kern County (California, USA)", "positive": "SLEV", "title": "YTD Positive Mosquito Pool"}}, {"geometry": {"type": "Point", "coordinates": [-119.08253085972463, 35.353803734469494]}, "type": "Feature", "properties": {"date": "07/11/2018", "city": "Bakersfield", "region": "Kern County (California, USA)", "positive": "SLEV", "title": "YTD Positive Mosquito Pool"}}, {"geometry": {"type": "Point", "coordinates": [-119.07258467262629, 35.328891333036935]}, "type": "Feature", "properties": {"date": "07/11/2018", "city": "Bakersfield", "region": "Kern County (California, USA)", "positive": "SLEV", "title": "YTD Positive Mosquito Pool"}}, {"geometry": {"type": "Point", "coordinates": [-119.2667911103703, 36.33890927288634]}, "type": "Feature", "properties": {"date": "07/11/2018", "city": "Visalia", "region": "Tulare County (California, USA)", "positive": "SLEV", "title": "YTD Positive Mosquito Pool"}}, {"geometry": {"type": "Point", "coordinates": [-119.32508620794448, 36.30560510976571]}, "type": "Feature", "properties": {"date": "07/11/2018", "city": "Visalia", "region": "Tulare County (California, USA)", "positive": "SLEV", "title": "YTD Positive Mosquito Pool"}}, {"geometry": {"type": "Point", "coordinates": [-119.30211847962131, 36.323166955152494]}, "type": "Feature", "properties": {"date": "07/11/2018", "city": "Visalia", "region": "Tulare County (California, USA)", "positive": "SLEV", "title": "YTD Positive Mosquito Pool"}}, {"geometry": {"type": "Point", "coordinates": [-119.33550593520783, 36.28974919426002]}, "type": "Feature", "properties": {"date": "07/11/2018", "city": "Visalia", "region": "Tulare County (California, USA)", "positive": "SLEV", "title": "YTD Positive Mosquito Pool"}}, {"geometry": {"type": "Point", "coordinates": [-119.32300128055384, 36.30578501764277]}, "type": "Feature", "properties": {"date": "07/11/2018", "city": "Visalia", "region": "Tulare County (California, USA)", "positive": "SLEV", "title": "YTD Positive Mosquito Pool"}}, {"geometry": {"type": "Point", "coordinates": [-119.11087970574458, 35.31584348478556]}, "type": "Feature", "properties": {"date": "07/12/2018", "city": "Bakersfield", "region": "Kern County (California, USA)", "positive": "SLEV", "title": "YTD Positive Mosquito Pool"}}, {"geometry": {"type": "Point", "coordinates": [-119.77827655201338, 36.79203275657662]}, "type": "Feature", "properties": {"date": "07/12/2018", "city": "Fresno", "region": "Fresno County (California, USA)", "positive": "SLEV", "title": "YTD Positive Mosquito Pool"}}, {"geometry": {"type": "Point", "coordinates": [-119.32301812927672, 36.20188824966544]}, "type": "Feature", "properties": {"date": "07/05/2018", "city": "Tulare", "region": "Tulare County (California, USA)", "positive": "SLEV", "title": "YTD Positive Mosquito Pool"}}, {"geometry": {"type": "Point", "coordinates": [-119.28342219955164, 36.348955617629336]}, "type": "Feature", "properties": {"date": "07/12/2018", "city": "Visalia", "region": "Tulare County (California, USA)", "positive": "SLEV", "title": "YTD Positive Mosquito Pool"}}, {"geometry": {"type": "Point", "coordinates": [-119.32415686485096, 36.29433792703115]}, "type": "Feature", "properties": {"date": "07/12/2018", "city": "Visalia", "region": "Tulare County (California, USA)", "positive": "SLEV", "title": "YTD Positive Mosquito Pool"}}, {"geometry": {"type": "Point", "coordinates": [-116.08174695971213, 33.54131117746021]}, "type": "Feature", "properties": {"date": "07/13/2018", "city": "Mecca", "region": "Riverside County (California, USA)", "positive": "SLEV", "title": "YTD Positive Mosquito Pool"}}, {"geometry": {"type": "Point", "coordinates": [-119.102511092821, 35.337619658179115]}, "type": "Feature", "properties": {"date": "07/13/2018", "city": "Bakersfield", "region": "Kern County (California, USA)", "positive": "SLEV", "title": "YTD Positive Mosquito Pool"}}, {"geometry": {"type": "Point", "coordinates": [-119.04150906187165, 35.35305726235253]}, "type": "Feature", "properties": {"date": "07/13/2018", "city": "Bakersfield", "region": "Kern County (California, USA)", "positive": "SLEV", "title": "YTD Positive Mosquito Pool"}}, {"geometry": {"type": "Point", "coordinates": [-119.76528508036215, 36.8005465254958]}, "type": "Feature", "properties": {"date": "07/13/2018", "city": "Fresno", "region": "Fresno County (California, USA)", "positive": "SLEV", "title": "YTD Positive Mosquito Pool"}}, {"geometry": {"type": "Point", "coordinates": [-119.6863891984617, 36.78686685608631]}, "type": "Feature", "properties": {"date": "07/13/2018", "city": "Fresno", "region": "Fresno County (California, USA)", "positive": "SLEV", "title": "YTD Positive Mosquito Pool"}}, {"geometry": {"type": "Point", "coordinates": [-119.34208003940788, 36.32013939178726]}, "type": "Feature", "properties": {"date": "07/13/2018", "city": "Visalia", "region": "Tulare County (California, USA)", "positive": "SLEV", "title": "YTD Positive Mosquito Pool"}}, {"geometry": {"type": "Point", "coordinates": [-116.0624028225485, 33.53869035061122]}, "type": "Feature", "properties": {"date": "07/17/2018", "city": "Mecca", "region": "Riverside County (California, USA)", "positive": "SLEV", "title": "YTD Positive Mosquito Pool"}}, {"geometry": {"type": "Point", "coordinates": [-115.95525863754916, 33.528327938116554]}, "type": "Feature", "properties": {"date": "07/17/2018", "city": "Mecca", "region": "Riverside County (California, USA)", "positive": "SLEV", "title": "YTD Positive Mosquito Pool"}}, {"geometry": {"type": "Point", "coordinates": [-116.0389207952374, 33.53626496122027]}, "type": "Feature", "properties": {"date": "07/17/2018", "city": "Mecca", "region": "Riverside County (California, USA)", "positive": "SLEV", "title": "YTD Positive Mosquito Pool"}}, {"geometry": {"type": "Point", "coordinates": [-119.08336470628343, 35.22896303638889]}, "type": "Feature", "properties": {"date": "07/17/2018", "city": "Bakersfield", "region": "Kern County (California, USA)", "positive": "SLEV", "title": "YTD Positive Mosquito Pool"}}, {"geometry": {"type": "Point", "coordinates": [-119.28604410888454, 36.32389053222895]}, "type": "Feature", "properties": {"date": "07/17/2018", "city": "Visalia", "region": "Tulare County (California, USA)", "positive": "SLEV", "title": "YTD Positive Mosquito Pool"}}, {"geometry": {"type": "Point", "coordinates": [-119.28225962127566, 36.266057511950244]}, "type": "Feature", "properties": {"date": "07/17/2018", "city": null, "region": "Tulare County (California, USA)", "positive": "SLEV", "title": "YTD Positive Mosquito Pool"}}, {"geometry": {"type": "Point", "coordinates": [-119.81120317964623, 36.78533004284901]}, "type": "Feature", "properties": {"date": "07/17/2018", "city": null, "region": "Fresno County (California, USA)", "positive": "SLEV", "title": "YTD Positive Mosquito Pool"}}, {"geometry": {"type": "Point", "coordinates": [-119.01082769286091, 35.38163941270597]}, "type": "Feature", "properties": {"date": "07/18/2018", "city": "Bakersfield", "region": "Kern County (California, USA)", "positive": "SLEV", "title": "YTD Positive Mosquito Pool"}}, {"geometry": {"type": "Point", "coordinates": [-119.32667938762152, 36.34727857537559]}, "type": "Feature", "properties": {"date": "07/18/2018", "city": "Visalia", "region": "Tulare County (California, USA)", "positive": "SLEV", "title": "YTD Positive Mosquito Pool"}}, {"geometry": {"type": "Point", "coordinates": [-119.32610815159333, 36.30712549389414]}, "type": "Feature", "properties": {"date": "07/18/2018", "city": "Visalia", "region": "Tulare County (California, USA)", "positive": "SLEV", "title": "YTD Positive Mosquito Pool"}}, {"geometry": {"type": "Point", "coordinates": [-119.8302266962307, 36.79999724194282]}, "type": "Feature", "properties": {"date": "07/17/2018", "city": "Fresno", "region": "Fresno County (California, USA)", "positive": "SLEV", "title": "YTD Positive Mosquito Pool"}}, {"geometry": {"type": "Point", "coordinates": [-119.80860033703334, 36.76009787935153]}, "type": "Feature", "properties": {"date": "07/18/2018", "city": "FRESNO", "region": "Fresno County (California, USA)", "positive": "SLEV", "title": "YTD Positive Mosquito Pool"}}, {"geometry": {"type": "Point", "coordinates": [-119.80318603570971, 36.76251633080107]}, "type": "Feature", "properties": {"date": "07/18/2018", "city": "FRESNO", "region": "Fresno County (California, USA)", "positive": "SLEV", "title": "YTD Positive Mosquito Pool"}}, {"geometry": {"type": "Point", "coordinates": [-119.80404873177409, 36.80601858638247]}, "type": "Feature", "properties": {"date": "07/18/2018", "city": null, "region": "Fresno County (California, USA)", "positive": "SLEV", "title": "YTD Positive Mosquito Pool"}}, {"geometry": {"type": "Point", "coordinates": [-119.80528457594718, 36.80668189917989]}, "type": "Feature", "properties": {"date": "07/18/2018", "city": null, "region": "Fresno County (California, USA)", "positive": "SLEV", "title": "YTD Positive Mosquito Pool"}}, {"geometry": {"type": "Point", "coordinates": [-119.80430924941554, 36.80132399966765]}, "type": "Feature", "properties": {"date": "07/18/2018", "city": "Fresno", "region": "Fresno County (California, USA)", "positive": "SLEV", "title": "YTD Positive Mosquito Pool"}}, {"geometry": {"type": "Point", "coordinates": [-119.11080684972057, 35.320276480283034]}, "type": "Feature", "properties": {"date": "07/19/2018", "city": "Bakersfield", "region": "Kern County (California, USA)", "positive": "SLEV", "title": "YTD Positive Mosquito Pool"}}, {"geometry": {"type": "Point", "coordinates": [-119.77838556680163, 36.78823181927324]}, "type": "Feature", "properties": {"date": "07/19/2018", "city": "Fresno", "region": "Fresno County (California, USA)", "positive": "SLEV", "title": "YTD Positive Mosquito Pool"}}, {"geometry": {"type": "Point", "coordinates": [-119.6454128007636, 36.362839598407376]}, "type": "Feature", "properties": {"date": "07/17/2018", "city": "Hanford", "region": "Kings County (California, USA)", "positive": "SLEV", "title": "YTD Positive Mosquito Pool"}}, {"geometry": {"type": "Point", "coordinates": [-119.64729998931776, 36.3542349246428]}, "type": "Feature", "properties": {"date": "07/18/2018", "city": "Hanford", "region": "Kings County (California, USA)", "positive": "SLEV", "title": "YTD Positive Mosquito Pool"}}, {"geometry": {"type": "Point", "coordinates": [-119.68158363327382, 36.33617421170639]}, "type": "Feature", "properties": {"date": "07/19/2018", "city": "Hanford", "region": "Kings County (California, USA)", "positive": "SLEV", "title": "YTD Positive Mosquito Pool"}}, {"geometry": {"type": "Point", "coordinates": [-119.73156508215867, 36.2277855152714]}, "type": "Feature", "properties": {"date": "07/19/2018", "city": "Lemoore", "region": "Kings County (California, USA)", "positive": "SLEV", "title": "YTD Positive Mosquito Pool"}}, {"geometry": {"type": "Point", "coordinates": [-119.19082103189075, 35.373493383594734]}, "type": "Feature", "properties": {"date": "07/20/2018", "city": "Bakersfield", "region": "Kern County (California, USA)", "positive": "SLEV", "title": "YTD Positive Mosquito Pool"}}, {"geometry": {"type": "Point", "coordinates": [-116.03274122125607, 33.530641167249094]}, "type": "Feature", "properties": {"date": "07/20/2018", "city": "Mecca", "region": "Riverside County (California, USA)", "positive": "SLEV", "title": "YTD Positive Mosquito Pool"}}, {"geometry": {"type": "Point", "coordinates": [-116.03613058866605, 33.53399151596013]}, "type": "Feature", "properties": {"date": "07/20/2018", "city": "Mecca", "region": "Riverside County (California, USA)", "positive": "SLEV", "title": "YTD Positive Mosquito Pool"}}, {"geometry": {"type": "Point", "coordinates": [-119.30847240355472, 36.30734990528447]}, "type": "Feature", "properties": {"date": "07/19/2018", "city": "Visalia", "region": "Tulare County (California, USA)", "positive": "SLEV", "title": "YTD Positive Mosquito Pool"}}, {"geometry": {"type": "Point", "coordinates": [-119.30526902734329, 36.35277224044117]}, "type": "Feature", "properties": {"date": "07/20/2018", "city": "Visalia", "region": "Tulare County (California, USA)", "positive": "SLEV", "title": "YTD Positive Mosquito Pool"}}, {"geometry": {"type": "Point", "coordinates": [-119.23255490759567, 36.28726428674491]}, "type": "Feature", "properties": {"date": "07/20/2018", "city": "Famersville", "region": "Tulare County (California, USA)", "positive": "SLEV", "title": "YTD Positive Mosquito Pool"}}, {"geometry": {"type": "Point", "coordinates": [-119.26909095060327, 36.30660920860563]}, "type": "Feature", "properties": {"date": "07/20/2018", "city": "Visalia", "region": "Tulare County (California, USA)", "positive": "SLEV", "title": "YTD Positive Mosquito Pool"}}, {"geometry": {"type": "Point", "coordinates": [-119.35531374524594, 36.30755518124823]}, "type": "Feature", "properties": {"date": "07/20/2018", "city": "Visalia", "region": "Tulare County (California, USA)", "positive": "SLEV", "title": "YTD Positive Mosquito Pool"}}, {"geometry": {"type": "Point", "coordinates": [-116.0784785935798, 33.58093381243024]}, "type": "Feature", "properties": {"date": "07/24/2018", "city": "Mecca", "region": "Riverside County (California, USA)", "positive": "SLEV", "title": "YTD Positive Mosquito Pool"}}, {"geometry": {"type": "Point", "coordinates": [-119.35908905658627, 36.353926266569886]}, "type": "Feature", "properties": {"date": "07/24/2018", "city": "Goshen", "region": "Tulare County (California, USA)", "positive": "SLEV", "title": "YTD Positive Mosquito Pool"}}, {"geometry": {"type": "Point", "coordinates": [-119.28297277205266, 36.43678413908504]}, "type": "Feature", "properties": {"date": "07/24/2018", "city": null, "region": "Tulare County (California, USA)", "positive": "SLEV", "title": "YTD Positive Mosquito Pool"}}, {"geometry": {"type": "Point", "coordinates": [-119.29914569114547, 35.24360267105562]}, "type": "Feature", "properties": {"date": "07/25/2018", "city": "Taft", "region": "Kern County (California, USA)", "positive": "SLEV", "title": "YTD Positive Mosquito Pool"}}, {"geometry": {"type": "Point", "coordinates": [-119.09999443876325, 35.34490229527679]}, "type": "Feature", "properties": {"date": "07/25/2018", "city": "Bakersfield", "region": "Kern County (California, USA)", "positive": "SLEV", "title": "YTD Positive Mosquito Pool"}}, {"geometry": {"type": "Point", "coordinates": [-119.07565510036719, 35.3565654851147]}, "type": "Feature", "properties": {"date": "07/25/2018", "city": "Bakersfield", "region": "Kern County (California, USA)", "positive": "SLEV", "title": "YTD Positive Mosquito Pool"}}, {"geometry": {"type": "Point", "coordinates": [-119.03375179622878, 35.3814494738727]}, "type": "Feature", "properties": {"date": "07/25/2018", "city": "Bakersfield", "region": "Kern County (California, USA)", "positive": "SLEV", "title": "YTD Positive Mosquito Pool"}}, {"geometry": {"type": "Point", "coordinates": [-119.31657448958185, 36.19293709904494]}, "type": "Feature", "properties": {"date": "07/18/2018", "city": "Tulare", "region": "Tulare County (California, USA)", "positive": "SLEV", "title": "YTD Positive Mosquito Pool"}}, {"geometry": {"type": "Point", "coordinates": [-119.33935350395801, 36.218819317168695]}, "type": "Feature", "properties": {"date": "07/18/2018", "city": "Tulare", "region": "Tulare County (California, USA)", "positive": "SLEV", "title": "YTD Positive Mosquito Pool"}}, {"geometry": {"type": "Point", "coordinates": [-119.30660693520908, 36.287502335805286]}, "type": "Feature", "properties": {"date": "07/18/2018", "city": "Visalia", "region": "Tulare County (California, USA)", "positive": "SLEV", "title": "YTD Positive Mosquito Pool"}}, {"geometry": {"type": "Point", "coordinates": [-119.29612308985261, 36.29001252481178]}, "type": "Feature", "properties": {"date": "07/18/2018", "city": "Visalia", "region": "Tulare County (California, USA)", "positive": "SLEV", "title": "YTD Positive Mosquito Pool"}}, {"geometry": {"type": "Point", "coordinates": [-119.3180957174061, 36.21843708216874]}, "type": "Feature", "properties": {"date": "07/19/2018", "city": "Tulare", "region": "Tulare County (California, USA)", "positive": "SLEV", "title": "YTD Positive Mosquito Pool"}}, {"geometry": {"type": "Point", "coordinates": [-119.31704290739764, 36.23686848703469]}, "type": "Feature", "properties": {"date": "07/19/2018", "city": "Tulare", "region": "Tulare County (California, USA)", "positive": "SLEV", "title": "YTD Positive Mosquito Pool"}}, {"geometry": {"type": "Point", "coordinates": [-119.30044835351558, 36.28812455173209]}, "type": "Feature", "properties": {"date": "07/19/2018", "city": "Visalia", "region": "Tulare County (California, USA)", "positive": "SLEV", "title": "YTD Positive Mosquito Pool"}}, {"geometry": {"type": "Point", "coordinates": [-119.28894147866087, 36.2978275769832]}, "type": "Feature", "properties": {"date": "07/19/2018", "city": "Visalia", "region": "Tulare County (California, USA)", "positive": "SLEV", "title": "YTD Positive Mosquito Pool"}}, {"geometry": {"type": "Point", "coordinates": [-119.85139170507489, 36.77405421871589]}, "type": "Feature", "properties": {"date": "07/24/2018", "city": null, "region": "Fresno County (California, USA)", "positive": "SLEV", "title": "YTD Positive Mosquito Pool"}}, {"geometry": {"type": "Point", "coordinates": [-119.32417745302116, 36.34775534269014]}, "type": "Feature", "properties": {"date": "07/25/2018", "city": "Visalia", "region": "Tulare County (California, USA)", "positive": "SLEV", "title": "YTD Positive Mosquito Pool"}}, {"geometry": {"type": "Point", "coordinates": [-119.21647072947653, 36.290205043502084]}, "type": "Feature", "properties": {"date": "07/25/2018", "city": "Farmersville", "region": "Tulare County (California, USA)", "positive": "SLEV", "title": "YTD Positive Mosquito Pool"}}, {"geometry": {"type": "Point", "coordinates": [-119.28706113844065, 36.30307126257945]}, "type": "Feature", "properties": {"date": "07/25/2018", "city": "Visalia", "region": "Tulare County (California, USA)", "positive": "SLEV", "title": "YTD Positive Mosquito Pool"}}, {"geometry": {"type": "Point", "coordinates": [-119.31822197654134, 36.30887022799831]}, "type": "Feature", "properties": {"date": "07/25/2018", "city": "Visalia", "region": "Tulare County (California, USA)", "positive": "SLEV", "title": "YTD Positive Mosquito Pool"}}, {"geometry": {"type": "Point", "coordinates": [-119.31939463492056, 36.29032811374489]}, "type": "Feature", "properties": {"date": "07/19/2018", "city": "Visalia", "region": "Tulare County (California, USA)", "positive": "SLEV", "title": "YTD Positive Mosquito Pool"}}, {"geometry": {"type": "Point", "coordinates": [-119.81209281681438, 36.82680661160578]}, "type": "Feature", "properties": {"date": "07/25/2018", "city": "FRESNO", "region": "Fresno County (California, USA)", "positive": "SLEV", "title": "YTD Positive Mosquito Pool"}}, {"geometry": {"type": "Point", "coordinates": [-119.8194069815093, 36.7515419381475]}, "type": "Feature", "properties": {"date": "07/25/2018", "city": "Fresno", "region": "Fresno County (California, USA)", "positive": "SLEV", "title": "YTD Positive Mosquito Pool"}}, {"geometry": {"type": "Point", "coordinates": [-116.08065893190305, 33.57594579542562]}, "type": "Feature", "properties": {"date": "07/26/2018", "city": "Indio", "region": "Riverside County (California, USA)", "positive": "SLEV", "title": "YTD Positive Mosquito Pool"}}, {"geometry": {"type": "Point", "coordinates": [-116.07715124087507, 33.57247247096751]}, "type": "Feature", "properties": {"date": "07/26/2018", "city": "Indio", "region": "Riverside County (California, USA)", "positive": "SLEV", "title": "YTD Positive Mosquito Pool"}}, {"geometry": {"type": "Point", "coordinates": [-116.07541058467743, 33.57458916427676]}, "type": "Feature", "properties": {"date": "07/26/2018", "city": "Indio", "region": "Riverside County (California, USA)", "positive": "SLEV", "title": "YTD Positive Mosquito Pool"}}, {"geometry": {"type": "Point", "coordinates": [-119.57857332120794, 36.83372969046274]}, "type": "Feature", "properties": {"date": "07/25/2018", "city": "Clovis", "region": "Fresno County (California, USA)", "positive": "SLEV", "title": "YTD Positive Mosquito Pool"}}, {"geometry": {"type": "Point", "coordinates": [-119.47355684221512, 36.735216112995744]}, "type": "Feature", "properties": {"date": "07/25/2018", "city": "Sanger", "region": "Fresno County (California, USA)", "positive": "SLEV", "title": "YTD Positive Mosquito Pool"}}, {"geometry": {"type": "Point", "coordinates": [-119.62238836045182, 36.831611898262274]}, "type": "Feature", "properties": {"date": "07/25/2018", "city": "Clovis", "region": "Fresno County (California, USA)", "positive": "SLEV", "title": "YTD Positive Mosquito Pool"}}, {"geometry": {"type": "Point", "coordinates": [-119.24946881431309, 36.320576007556234]}, "type": "Feature", "properties": {"date": "07/26/2018", "city": "Visalia", "region": "Tulare County (California, USA)", "positive": "SLEV", "title": "YTD Positive Mosquito Pool"}}, {"geometry": {"type": "Point", "coordinates": [-119.27338212690468, 36.318769751578515]}, "type": "Feature", "properties": {"date": "07/26/2018", "city": "Visalia", "region": "Tulare County (California, USA)", "positive": "SLEV", "title": "YTD Positive Mosquito Pool"}}, {"geometry": {"type": "Point", "coordinates": [-119.57976899789941, 36.33473485554838]}, "type": "Feature", "properties": {"date": "07/24/2018", "city": "Hanford", "region": "Kings County (California, USA)", "positive": "SLEV", "title": "YTD Positive Mosquito Pool"}}, {"geometry": {"type": "Point", "coordinates": [-119.10950008611822, 35.3802132428958]}, "type": "Feature", "properties": {"date": "07/27/2018", "city": "Bakersfield", "region": "Kern County (California, USA)", "positive": "SLEV", "title": "YTD Positive Mosquito Pool"}}, {"geometry": {"type": "Point", "coordinates": [-118.96772640883111, 35.185122928464516]}, "type": "Feature", "properties": {"date": "07/27/2018", "city": "Arvin", "region": "Kern County (California, USA)", "positive": "SLEV", "title": "YTD Positive Mosquito Pool"}}, {"geometry": {"type": "Point", "coordinates": [-119.21685108886113, 36.30872976113819]}, "type": "Feature", "properties": {"date": "07/27/2018", "city": "Farmersville", "region": "Tulare County (California, USA)", "positive": "SLEV", "title": "YTD Positive Mosquito Pool"}}, {"geometry": {"type": "Point", "coordinates": [-116.06078958734345, 33.5418802979444]}, "type": "Feature", "properties": {"date": "07/31/2018", "city": "Mecca", "region": "Riverside County (California, USA)", "positive": "SLEV", "title": "YTD Positive Mosquito Pool"}}, {"geometry": {"type": "Point", "coordinates": [-116.02300682654952, 33.526290765449886]}, "type": "Feature", "properties": {"date": "07/31/2018", "city": "Mecca", "region": "Riverside County (California, USA)", "positive": "SLEV", "title": "YTD Positive Mosquito Pool"}}, {"geometry": {"type": "Point", "coordinates": [-116.08193409367857, 33.58106496882647]}, "type": "Feature", "properties": {"date": "07/31/2018", "city": "Mecca", "region": "Riverside County (California, USA)", "positive": "SLEV", "title": "YTD Positive Mosquito Pool"}}, {"geometry": {"type": "Point", "coordinates": [-116.041179002213, 33.53135522204585]}, "type": "Feature", "properties": {"date": "07/31/2018", "city": "Mecca", "region": "Riverside County (California, USA)", "positive": "SLEV", "title": "YTD Positive Mosquito Pool"}}, {"geometry": {"type": "Point", "coordinates": [-116.02851882876101, 33.526946582720186]}, "type": "Feature", "properties": {"date": "07/31/2018", "city": "Mecca", "region": "Riverside County (California, USA)", "positive": "SLEV", "title": "YTD Positive Mosquito Pool"}}, {"geometry": {"type": "Point", "coordinates": [-119.80898297036612, 36.83416306322946]}, "type": "Feature", "properties": {"date": "08/01/2018", "city": "FRESNO", "region": "Fresno County (California, USA)", "positive": "SLEV", "title": "YTD Positive Mosquito Pool"}}, {"geometry": {"type": "Point", "coordinates": [-119.26986132154744, 36.33080588374081]}, "type": "Feature", "properties": {"date": "07/31/2018", "city": "Visalia", "region": "Tulare County (California, USA)", "positive": "SLEV", "title": "YTD Positive Mosquito Pool"}}, {"geometry": {"type": "Point", "coordinates": [-119.31994055172046, 36.22944576532532]}, "type": "Feature", "properties": {"date": "07/31/2018", "city": "Tulare", "region": "Tulare County (California, USA)", "positive": "SLEV", "title": "YTD Positive Mosquito Pool"}}, {"geometry": {"type": "Point", "coordinates": [-119.3051023661327, 36.34897377336492]}, "type": "Feature", "properties": {"date": "08/01/2018", "city": "Visalia", "region": "Tulare County (California, USA)", "positive": "SLEV", "title": "YTD Positive Mosquito Pool"}}, {"geometry": {"type": "Point", "coordinates": [-119.32151140559364, 36.30848972127419]}, "type": "Feature", "properties": {"date": "08/01/2018", "city": "Visalia", "region": "Tulare County (California, USA)", "positive": "SLEV", "title": "YTD Positive Mosquito Pool"}}, {"geometry": {"type": "Point", "coordinates": [-116.03820836841663, 33.528045148901285]}, "type": "Feature", "properties": {"date": "08/02/2018", "city": "Mecca", "region": "Riverside County (California, USA)", "positive": "SLEV", "title": "YTD Positive Mosquito Pool"}}, {"geometry": {"type": "Point", "coordinates": [-119.41219581453313, 36.34781175060853]}, "type": "Feature", "properties": {"date": "08/02/2018", "city": "Goshen", "region": "Tulare County (California, USA)", "positive": "SLEV", "title": "YTD Positive Mosquito Pool"}}, {"geometry": {"type": "Point", "coordinates": [-119.32278892118595, 36.348038689622214]}, "type": "Feature", "properties": {"date": "08/02/2018", "city": "Visalia", "region": "Tulare County (California, USA)", "positive": "SLEV", "title": "YTD Positive Mosquito Pool"}}, {"geometry": {"type": "Point", "coordinates": [-119.36033621107228, 36.35124832330745]}, "type": "Feature", "properties": {"date": "08/02/2018", "city": "Goshen", "region": "Tulare County (California, USA)", "positive": "SLEV", "title": "YTD Positive Mosquito Pool"}}, {"geometry": {"type": "Point", "coordinates": [-119.69230853319759, 36.29538844442432]}, "type": "Feature", "properties": {"date": "07/31/2018", "city": "Armona", "region": "Kings County (California, USA)", "positive": "SLEV", "title": "YTD Positive Mosquito Pool"}}, {"geometry": {"type": "Point", "coordinates": [-119.69625465413942, 36.21065138020066]}, "type": "Feature", "properties": {"date": "08/02/2018", "city": "Guernsey", "region": "Kings County (California, USA)", "positive": "SLEV", "title": "YTD Positive Mosquito Pool"}}, {"geometry": {"type": "Point", "coordinates": [-119.51816154957906, 36.61951092610675]}, "type": "Feature", "properties": {"date": "08/02/2018", "city": "Parlier", "region": "Fresno County (California, USA)", "positive": "SLEV", "title": "YTD Positive Mosquito Pool"}}, {"geometry": {"type": "Point", "coordinates": [-119.18864497664715, 35.36658916166668]}, "type": "Feature", "properties": {"date": "08/03/2018", "city": "Bakersfield", "region": "Kern County (California, USA)", "positive": "SLEV", "title": "YTD Positive Mosquito Pool"}}, {"geometry": {"type": "Point", "coordinates": [-119.00711754755791, 35.055826335302946]}, "type": "Feature", "properties": {"date": "08/03/2018", "city": "Bakersfield", "region": "Kern County (California, USA)", "positive": "SLEV", "title": "YTD Positive Mosquito Pool"}}, {"geometry": {"type": "Point", "coordinates": [-119.34006101579226, 36.31011341475368]}, "type": "Feature", "properties": {"date": "08/03/2018", "city": "Visalia", "region": "Tulare County (California, USA)", "positive": "SLEV", "title": "YTD Positive Mosquito Pool"}}, {"geometry": {"type": "Point", "coordinates": [-118.43455783561092, 33.96870824623519]}, "type": "Feature", "properties": {"date": "08/01/2018", "city": "Playa Vista", "region": "Los Angeles County (California, USA)", "positive": "SLEV", "title": "YTD Positive Mosquito Pool"}}, {"geometry": {"type": "Point", "coordinates": [-118.83340960163204, 35.20880714545249]}, "type": "Feature", "properties": {"date": "08/07/2018", "city": "Arvin", "region": "Kern County (California, USA)", "positive": "SLEV", "title": "YTD Positive Mosquito Pool"}}, {"geometry": {"type": "Point", "coordinates": [-115.55451578857712, 32.82778842010433]}, "type": "Feature", "properties": {"date": "07/25/2018", "city": "Imperial", "region": "Imperial County (California, USA)", "positive": "SLEV", "title": "YTD Positive Mosquito Pool"}}, {"geometry": {"type": "Point", "coordinates": [-115.56095870674766, 32.83447713311269]}, "type": "Feature", "properties": {"date": "07/20/2018", "city": "Imperial", "region": "Imperial County (California, USA)", "positive": "SLEV", "title": "YTD Positive Mosquito Pool"}}, {"geometry": {"type": "Point", "coordinates": [-119.8536714540169, 36.772195097339846]}, "type": "Feature", "properties": {"date": "08/07/2018", "city": null, "region": "Fresno County (California, USA)", "positive": "SLEV", "title": "YTD Positive Mosquito Pool"}}, {"geometry": {"type": "Point", "coordinates": [-119.36096062872079, 35.32897686086227]}, "type": "Feature", "properties": {"date": "08/08/2018", "city": "Buttonwillow", "region": "Kern County (California, USA)", "positive": "SLEV", "title": "YTD Positive Mosquito Pool"}}, {"geometry": {"type": "Point", "coordinates": [-119.30685344150179, 35.24391993230114]}, "type": "Feature", "properties": {"date": "08/08/2018", "city": "Taft", "region": "Kern County (California, USA)", "positive": "SLEV", "title": "YTD Positive Mosquito Pool"}}, {"geometry": {"type": "Point", "coordinates": [-119.0756457096303, 35.32196087018201]}, "type": "Feature", "properties": {"date": "08/08/2018", "city": "Bakersfield", "region": "Kern County (California, USA)", "positive": "SLEV", "title": "YTD Positive Mosquito Pool"}}, {"geometry": {"type": "Point", "coordinates": [-119.07748071434204, 35.34905077547869]}, "type": "Feature", "properties": {"date": "08/08/2018", "city": "Bakersfield", "region": "Kern County (California, USA)", "positive": "SLEV", "title": "YTD Positive Mosquito Pool"}}, {"geometry": {"type": "Point", "coordinates": [-119.34348455861515, 36.218459507850966]}, "type": "Feature", "properties": {"date": "08/03/2018", "city": "Tulare", "region": "Tulare County (California, USA)", "positive": "SLEV", "title": "YTD Positive Mosquito Pool"}}, {"geometry": {"type": "Point", "coordinates": [-119.3078295133168, 36.18686710193749]}, "type": "Feature", "properties": {"date": "08/03/2018", "city": "Tulare", "region": "Tulare County (California, USA)", "positive": "SLEV", "title": "YTD Positive Mosquito Pool"}}, {"geometry": {"type": "Point", "coordinates": [-119.8505150107552, 36.81590601010447]}, "type": "Feature", "properties": {"date": "08/08/2018", "city": "fresno", "region": "Fresno County (California, USA)", "positive": "SLEV", "title": "YTD Positive Mosquito Pool"}}, {"geometry": {"type": "Point", "coordinates": [-119.26691958653544, 35.79627457172866]}, "type": "Feature", "properties": {"date": "08/09/2018", "city": "Delano", "region": "Tulare County (California, USA)", "positive": "SLEV", "title": "YTD Positive Mosquito Pool"}}, {"geometry": {"type": "Point", "coordinates": [-119.50708943326494, 36.729497136567566]}, "type": "Feature", "properties": {"date": "08/07/2018", "city": "Sanger", "region": "Fresno County (California, USA)", "positive": "SLEV", "title": "YTD Positive Mosquito Pool"}}, {"geometry": {"type": "Point", "coordinates": [-116.07887489553622, 33.5847578890455]}, "type": "Feature", "properties": {"date": "08/10/2018", "city": "Mecca", "region": "Riverside County (California, USA)", "positive": "SLEV", "title": "YTD Positive Mosquito Pool"}}, {"geometry": {"type": "Point", "coordinates": [-116.03073142504857, 33.533787833267]}, "type": "Feature", "properties": {"date": "08/10/2018", "city": "Mecca", "region": "Riverside County (California, USA)", "positive": "SLEV", "title": "YTD Positive Mosquito Pool"}}, {"geometry": {"type": "Point", "coordinates": [-119.65014401101514, 36.34657726295999]}, "type": "Feature", "properties": {"date": "08/07/2018", "city": "Hanford", "region": "Kings County (California, USA)", "positive": "SLEV", "title": "YTD Positive Mosquito Pool"}}, {"geometry": {"type": "Point", "coordinates": [-119.17950472466357, 35.38276913264701]}, "type": "Feature", "properties": {"date": "08/10/2018", "city": "Bakersfield", "region": "Kern County (California, USA)", "positive": "SLEV", "title": "YTD Positive Mosquito Pool"}}, {"geometry": {"type": "Point", "coordinates": [-119.1889452035531, 35.36997311650232]}, "type": "Feature", "properties": {"date": "08/10/2018", "city": "Bakersfield", "region": "Kern County (California, USA)", "positive": "SLEV", "title": "YTD Positive Mosquito Pool"}}, {"geometry": {"type": "Point", "coordinates": [-119.57684801633101, 36.76453628431603]}, "type": "Feature", "properties": {"date": "08/08/2018", "city": "Sanger", "region": "Fresno County (California, USA)", "positive": "SLEV", "title": "YTD Positive Mosquito Pool"}}, {"geometry": {"type": "Point", "coordinates": [-119.45769573242846, 36.61298178934969]}, "type": "Feature", "properties": {"date": "08/10/2018", "city": "Reedley", "region": "Fresno County (California, USA)", "positive": "SLEV", "title": "YTD Positive Mosquito Pool"}}, {"geometry": {"type": "Point", "coordinates": [-119.68742939562483, 36.441843429512524]}, "type": "Feature", "properties": {"date": "08/09/2018", "city": "Laton", "region": "Fresno County (California, USA)", "positive": "SLEV", "title": "YTD Positive Mosquito Pool"}}, {"geometry": {"type": "Point", "coordinates": [-119.30835274705053, 36.35369630095921]}, "type": "Feature", "properties": {"date": "08/08/2018", "city": "Visalia", "region": "Tulare County (California, USA)", "positive": "SLEV", "title": "YTD Positive Mosquito Pool"}}, {"geometry": {"type": "Point", "coordinates": [-119.32359503419961, 36.36128452198317]}, "type": "Feature", "properties": {"date": "08/08/2018", "city": "Visalia", "region": "Tulare County (California, USA)", "positive": "SLEV", "title": "YTD Positive Mosquito Pool"}}, {"geometry": {"type": "Point", "coordinates": [-119.32525568552619, 36.3511775858373]}, "type": "Feature", "properties": {"date": "08/08/2018", "city": "Visalia", "region": "Tulare County (California, USA)", "positive": "SLEV", "title": "YTD Positive Mosquito Pool"}}, {"geometry": {"type": "Point", "coordinates": [-119.34563792722577, 36.31960521275159]}, "type": "Feature", "properties": {"date": "08/08/2018", "city": "Visalia", "region": "Tulare County (California, USA)", "positive": "SLEV", "title": "YTD Positive Mosquito Pool"}}, {"geometry": {"type": "Point", "coordinates": [-119.33974400700268, 36.32088921723482]}, "type": "Feature", "properties": {"date": "08/08/2018", "city": "Visalia", "region": "Tulare County (California, USA)", "positive": "SLEV", "title": "YTD Positive Mosquito Pool"}}, {"geometry": {"type": "Point", "coordinates": [-119.28310845789736, 36.306731398583835]}, "type": "Feature", "properties": {"date": "08/09/2018", "city": "Visalia", "region": "Tulare County (California, USA)", "positive": "SLEV", "title": "YTD Positive Mosquito Pool"}}, {"geometry": {"type": "Point", "coordinates": [-119.3385151133809, 36.303305001051484]}, "type": "Feature", "properties": {"date": "08/09/2018", "city": "Visalia", "region": "Tulare County (California, USA)", "positive": "SLEV", "title": "YTD Positive Mosquito Pool"}}, {"geometry": {"type": "Point", "coordinates": [-119.32331461286347, 36.23233101976351]}, "type": "Feature", "properties": {"date": "08/08/2018", "city": "Tulare", "region": "Tulare County (California, USA)", "positive": "SLEV", "title": "YTD Positive Mosquito Pool"}}, {"geometry": {"type": "Point", "coordinates": [-119.29063234161156, 36.37557151283645]}, "type": "Feature", "properties": {"date": "08/10/2018", "city": "Visalia", "region": "Tulare County (California, USA)", "positive": "SLEV", "title": "YTD Positive Mosquito Pool"}}, {"geometry": {"type": "Point", "coordinates": [-119.30372337286289, 36.31017198064455]}, "type": "Feature", "properties": {"date": "08/10/2018", "city": "Visalia", "region": "Tulare County (California, USA)", "positive": "SLEV", "title": "YTD Positive Mosquito Pool"}}, {"geometry": {"type": "Point", "coordinates": [-119.29163844373886, 36.30278125847304]}, "type": "Feature", "properties": {"date": "08/10/2018", "city": "Visalia", "region": "Tulare County (California, USA)", "positive": "SLEV", "title": "YTD Positive Mosquito Pool"}}, {"geometry": {"type": "Point", "coordinates": [-116.04856811805752, 33.530009805532835]}, "type": "Feature", "properties": {"date": "08/14/2018", "city": "Mecca", "region": "Riverside County (California, USA)", "positive": "SLEV", "title": "YTD Positive Mosquito Pool"}}, {"geometry": {"type": "Point", "coordinates": [-115.96083209721833, 33.5300024763324]}, "type": "Feature", "properties": {"date": "08/14/2018", "city": "Mecca", "region": "Riverside County (California, USA)", "positive": "SLEV", "title": "YTD Positive Mosquito Pool"}}, {"geometry": {"type": "Point", "coordinates": [-115.95333555642682, 33.52739359789511]}, "type": "Feature", "properties": {"date": "08/14/2018", "city": "Mecca", "region": "Riverside County (California, USA)", "positive": "SLEV", "title": "YTD Positive Mosquito Pool"}}, {"geometry": {"type": "Point", "coordinates": [-115.95419147638984, 33.52253717009926]}, "type": "Feature", "properties": {"date": "08/14/2018", "city": "Mecca", "region": "Riverside County (California, USA)", "positive": "SLEV", "title": "YTD Positive Mosquito Pool"}}, {"geometry": {"type": "Point", "coordinates": [-115.97554222911477, 33.52358510907047]}, "type": "Feature", "properties": {"date": "08/14/2018", "city": "Mecca", "region": "Riverside County (California, USA)", "positive": "SLEV", "title": "YTD Positive Mosquito Pool"}}, {"geometry": {"type": "Point", "coordinates": [-118.79304703571488, 35.19751489216576]}, "type": "Feature", "properties": {"date": "08/14/2018", "city": "Arvin", "region": "Kern County (California, USA)", "positive": "SLEV", "title": "YTD Positive Mosquito Pool"}}, {"geometry": {"type": "Point", "coordinates": [-115.55451740472827, 32.82796640422024]}, "type": "Feature", "properties": {"date": "08/13/2018", "city": "Imperial", "region": "Imperial County (California, USA)", "positive": "SLEV", "title": "YTD Positive Mosquito Pool"}}, {"geometry": {"type": "Point", "coordinates": [-119.29190196888261, 36.52491215706879]}, "type": "Feature", "properties": {"date": "08/14/2018", "city": "Cutler", "region": "Tulare County (California, USA)", "positive": "SLEV", "title": "YTD Positive Mosquito Pool"}}, {"geometry": {"type": "Point", "coordinates": [-119.32791019620721, 36.33632196851029]}, "type": "Feature", "properties": {"date": "08/14/2018", "city": "Visalia", "region": "Tulare County (California, USA)", "positive": "SLEV", "title": "YTD Positive Mosquito Pool"}}, {"geometry": {"type": "Point", "coordinates": [-119.09580348767038, 35.34443138582772]}, "type": "Feature", "properties": {"date": "08/15/2018", "city": "Bakersfield", "region": "Kern County (California, USA)", "positive": "SLEV", "title": "YTD Positive Mosquito Pool"}}, {"geometry": {"type": "Point", "coordinates": [-119.81745925824545, 36.75399777129111]}, "type": "Feature", "properties": {"date": "08/15/2018", "city": "Fresno", "region": "Fresno County (California, USA)", "positive": "SLEV", "title": "YTD Positive Mosquito Pool"}}, {"geometry": {"type": "Point", "coordinates": [-119.80117554346192, 36.78064507428674]}, "type": "Feature", "properties": {"date": "08/15/2018", "city": "Fresno", "region": "Fresno County (California, USA)", "positive": "SLEV", "title": "YTD Positive Mosquito Pool"}}, {"geometry": {"type": "Point", "coordinates": [-119.35393014127472, 36.33530204825333]}, "type": "Feature", "properties": {"date": "08/15/2018", "city": "Visalia", "region": "Tulare County (California, USA)", "positive": "SLEV", "title": "YTD Positive Mosquito Pool"}}, {"geometry": {"type": "Point", "coordinates": [-119.33639908676723, 36.33725491620127]}, "type": "Feature", "properties": {"date": "08/15/2018", "city": "Visalia", "region": "Tulare County (California, USA)", "positive": "SLEV", "title": "YTD Positive Mosquito Pool"}}, {"geometry": {"type": "Point", "coordinates": [-119.36321347075932, 36.58297097697237]}, "type": "Feature", "properties": {"date": "08/14/2018", "city": "Dinuba", "region": "Fresno County (California, USA)", "positive": "SLEV", "title": "YTD Positive Mosquito Pool"}}, {"geometry": {"type": "Point", "coordinates": [-119.3719027494817, 36.57919371466715]}, "type": "Feature", "properties": {"date": "08/14/2018", "city": "Dinuba", "region": "Fresno County (California, USA)", "positive": "SLEV", "title": "YTD Positive Mosquito Pool"}}, {"geometry": {"type": "Point", "coordinates": [-119.58284442055734, 36.33375900442855]}, "type": "Feature", "properties": {"date": "08/15/2018", "city": "Hanford", "region": "Kings County (California, USA)", "positive": "SLEV", "title": "YTD Positive Mosquito Pool"}}, {"geometry": {"type": "Point", "coordinates": [-119.58570315125363, 36.333392259222364]}, "type": "Feature", "properties": {"date": "08/15/2018", "city": "Hanford", "region": "Kings County (California, USA)", "positive": "SLEV", "title": "YTD Positive Mosquito Pool"}}, {"geometry": {"type": "Point", "coordinates": [-119.64423970734565, 36.32244341649081]}, "type": "Feature", "properties": {"date": "08/16/2018", "city": "Hanford", "region": "Kings County (California, USA)", "positive": "SLEV", "title": "YTD Positive Mosquito Pool"}}, {"geometry": {"type": "Point", "coordinates": [-119.64564062749139, 36.32320511431114]}, "type": "Feature", "properties": {"date": "08/16/2018", "city": "Hanford", "region": "Kings County (California, USA)", "positive": "SLEV", "title": "YTD Positive Mosquito Pool"}}, {"geometry": {"type": "Point", "coordinates": [-119.8552442454437, 36.42775292171102]}, "type": "Feature", "properties": {"date": "08/17/2018", "city": "Riverdale", "region": "Fresno County (California, USA)", "positive": "SLEV", "title": "YTD Positive Mosquito Pool"}}, {"geometry": {"type": "Point", "coordinates": [-119.86569351229252, 36.43555712353284]}, "type": "Feature", "properties": {"date": "08/17/2018", "city": "Riverdale", "region": "Fresno County (California, USA)", "positive": "SLEV", "title": "YTD Positive Mosquito Pool"}}, {"geometry": {"type": "Point", "coordinates": [-119.22797189477959, 35.77511331547067]}, "type": "Feature", "properties": {"date": "08/17/2018", "city": "Delano", "region": "Kern County (California, USA)", "positive": "SLEV", "title": "YTD Positive Mosquito Pool"}}, {"geometry": {"type": "Point", "coordinates": [-118.96198656993013, 35.188461573030864]}, "type": "Feature", "properties": {"date": "08/17/2018", "city": "Arvin", "region": "Kern County (California, USA)", "positive": "SLEV", "title": "YTD Positive Mosquito Pool"}}, {"geometry": {"type": "Point", "coordinates": [-119.28426917135205, 36.39235050393139]}, "type": "Feature", "properties": {"date": "08/16/2018", "city": null, "region": "Tulare County (California, USA)", "positive": "SLEV", "title": "YTD Positive Mosquito Pool"}}, {"geometry": {"type": "Point", "coordinates": [-119.3166271823742, 36.471138508814654]}, "type": "Feature", "properties": {"date": "08/16/2018", "city": null, "region": "Tulare County (California, USA)", "positive": "SLEV", "title": "YTD Positive Mosquito Pool"}}, {"geometry": {"type": "Point", "coordinates": [-119.38701340147497, 36.55714518080576]}, "type": "Feature", "properties": {"date": "08/17/2018", "city": "Dinuba", "region": "Tulare County (California, USA)", "positive": "SLEV", "title": "YTD Positive Mosquito Pool"}}, {"geometry": {"type": "Point", "coordinates": [-119.32553375601184, 36.36744369024007]}, "type": "Feature", "properties": {"date": "08/17/2018", "city": "Visalia", "region": "Tulare County (California, USA)", "positive": "SLEV", "title": "YTD Positive Mosquito Pool"}}, {"geometry": {"type": "Point", "coordinates": [-119.3233507262145, 36.36403235020698]}, "type": "Feature", "properties": {"date": "08/17/2018", "city": "Visalia", "region": "Tulare County (California, USA)", "positive": "SLEV", "title": "YTD Positive Mosquito Pool"}}, {"geometry": {"type": "Point", "coordinates": [-116.09955556246732, 33.525883613622426]}, "type": "Feature", "properties": {"date": "08/21/2018", "city": "Mecca", "region": "Riverside County (California, USA)", "positive": "SLEV", "title": "YTD Positive Mosquito Pool"}}, {"geometry": {"type": "Point", "coordinates": [-116.09535572965447, 33.524397956940064]}, "type": "Feature", "properties": {"date": "08/21/2018", "city": "Mecca", "region": "Riverside County (California, USA)", "positive": "SLEV", "title": "YTD Positive Mosquito Pool"}}, {"geometry": {"type": "Point", "coordinates": [-116.08264388439396, 33.537842616525225]}, "type": "Feature", "properties": {"date": "08/21/2018", "city": "Mecca", "region": "Riverside County (California, USA)", "positive": "SLEV", "title": "YTD Positive Mosquito Pool"}}, {"geometry": {"type": "Point", "coordinates": [-116.03256479264586, 33.53427957057628]}, "type": "Feature", "properties": {"date": "08/21/2018", "city": "Mecca", "region": "Riverside County (California, USA)", "positive": "SLEV", "title": "YTD Positive Mosquito Pool"}}, {"geometry": {"type": "Point", "coordinates": [-119.35488219450413, 36.337285428366464]}, "type": "Feature", "properties": {"date": "08/21/2018", "city": "Visalia", "region": "Tulare County (California, USA)", "positive": "SLEV", "title": "YTD Positive Mosquito Pool"}}, {"geometry": {"type": "Point", "coordinates": [-119.28898748528107, 36.417658814326984]}, "type": "Feature", "properties": {"date": "08/21/2018", "city": "Visalia", "region": "Tulare County (California, USA)", "positive": "SLEV", "title": "YTD Positive Mosquito Pool"}}, {"geometry": {"type": "Point", "coordinates": [-119.0388292835969, 35.38195084018443]}, "type": "Feature", "properties": {"date": "08/22/2018", "city": "Bakersfield", "region": "Kern County (California, USA)", "positive": "SLEV", "title": "YTD Positive Mosquito Pool"}}, {"geometry": {"type": "Point", "coordinates": [-119.32209682858445, 36.36854461102982]}, "type": "Feature", "properties": {"date": "08/22/2018", "city": "Visalia", "region": "Tulare County (California, USA)", "positive": "SLEV", "title": "YTD Positive Mosquito Pool"}}, {"geometry": {"type": "Point", "coordinates": [-119.2726440708277, 36.320898157989944]}, "type": "Feature", "properties": {"date": "08/22/2018", "city": "Visalia", "region": "Tulare County (California, USA)", "positive": "SLEV", "title": "YTD Positive Mosquito Pool"}}, {"geometry": {"type": "Point", "coordinates": [-119.36199892528123, 36.32357205392639]}, "type": "Feature", "properties": {"date": "08/22/2018", "city": "Visalia", "region": "Tulare County (California, USA)", "positive": "SLEV", "title": "YTD Positive Mosquito Pool"}}, {"geometry": {"type": "Point", "coordinates": [-119.37188562333995, 36.56721944388694]}, "type": "Feature", "properties": {"date": "08/22/2018", "city": "Dinuba", "region": "Tulare County (California, USA)", "positive": "SLEV", "title": "YTD Positive Mosquito Pool"}}, {"geometry": {"type": "Point", "coordinates": [-119.80662726648536, 36.779867804418885]}, "type": "Feature", "properties": {"date": "08/22/2018", "city": "Fresno", "region": "Fresno County (California, USA)", "positive": "SLEV", "title": "YTD Positive Mosquito Pool"}}, {"geometry": {"type": "Point", "coordinates": [-119.3241407913701, 36.21677326281539]}, "type": "Feature", "properties": {"date": "08/14/2018", "city": "Tulare", "region": "Tulare County (California, USA)", "positive": "SLEV", "title": "YTD Positive Mosquito Pool"}}, {"geometry": {"type": "Point", "coordinates": [-119.37775594346957, 36.199312500628665]}, "type": "Feature", "properties": {"date": "08/14/2018", "city": "Tulare", "region": "Tulare County (California, USA)", "positive": "SLEV", "title": "YTD Positive Mosquito Pool"}}, {"geometry": {"type": "Point", "coordinates": [-119.35363613163649, 36.20748539183062]}, "type": "Feature", "properties": {"date": "08/14/2018", "city": "Tulare", "region": "Tulare County (California, USA)", "positive": "SLEV", "title": "YTD Positive Mosquito Pool"}}, {"geometry": {"type": "Point", "coordinates": [-119.31759893251447, 36.22555076785371]}, "type": "Feature", "properties": {"date": "08/16/2018", "city": "Tulare", "region": "Tulare County (California, USA)", "positive": "SLEV", "title": "YTD Positive Mosquito Pool"}}, {"geometry": {"type": "Point", "coordinates": [-119.8465555874568, 36.81942008719618]}, "type": "Feature", "properties": {"date": "08/23/2018", "city": "fresno", "region": "Fresno County (California, USA)", "positive": "SLEV", "title": "YTD Positive Mosquito Pool"}}, {"geometry": {"type": "Point", "coordinates": [-119.85140487063953, 36.82536882130326]}, "type": "Feature", "properties": {"date": "08/23/2018", "city": "fresno", "region": "Fresno County (California, USA)", "positive": "SLEV", "title": "YTD Positive Mosquito Pool"}}, {"geometry": {"type": "Point", "coordinates": [-119.262857857921, 35.767331988589056]}, "type": "Feature", "properties": {"date": "08/24/2018", "city": "Delano", "region": "Kern County (California, USA)", "positive": "SLEV", "title": "YTD Positive Mosquito Pool"}}, {"geometry": {"type": "Point", "coordinates": [-119.19048796080615, 35.37375810848551]}, "type": "Feature", "properties": {"date": "08/24/2018", "city": "Bakersfield", "region": "Kern County (California, USA)", "positive": "SLEV", "title": "YTD Positive Mosquito Pool"}}, {"geometry": {"type": "Point", "coordinates": [-119.78690058928171, 36.307415818503486]}, "type": "Feature", "properties": {"date": "08/20/2018", "city": null, "region": "Kings County (California, USA)", "positive": "SLEV", "title": "YTD Positive Mosquito Pool"}}, {"geometry": {"type": "Point", "coordinates": [-119.69408433322837, 36.29790201233767]}, "type": "Feature", "properties": {"date": "08/22/2018", "city": "Armona", "region": "Kings County (California, USA)", "positive": "SLEV", "title": "YTD Positive Mosquito Pool"}}, {"geometry": {"type": "Point", "coordinates": [-119.3616170610333, 36.32335405229305]}, "type": "Feature", "properties": {"date": "08/24/2018", "city": "Visalia", "region": "Tulare County (California, USA)", "positive": "SLEV", "title": "YTD Positive Mosquito Pool"}}, {"geometry": {"type": "Point", "coordinates": [-119.33907117788117, 36.30632281109597]}, "type": "Feature", "properties": {"date": "08/24/2018", "city": "Visalia", "region": "Tulare County (California, USA)", "positive": "SLEV", "title": "YTD Positive Mosquito Pool"}}, {"geometry": {"type": "Point", "coordinates": [-120.0545410078083, 36.9303660763184]}, "type": "Feature", "properties": {"date": "08/21/2018", "city": "Madera", "region": "Madera County (California, USA)", "positive": "SLEV", "title": "YTD Positive Mosquito Pool"}}, {"geometry": {"type": "Point", "coordinates": [-116.05968544658114, 33.53166990734447]}, "type": "Feature", "properties": {"date": "08/28/2018", "city": "Mecca", "region": "Riverside County (California, USA)", "positive": "SLEV", "title": "YTD Positive Mosquito Pool"}}, {"geometry": {"type": "Point", "coordinates": [-116.0335737860771, 33.528428891023985]}, "type": "Feature", "properties": {"date": "08/28/2018", "city": "Mecca", "region": "Riverside County (California, USA)", "positive": "SLEV", "title": "YTD Positive Mosquito Pool"}}, {"geometry": {"type": "Point", "coordinates": [-116.045980134531, 33.53650277240009]}, "type": "Feature", "properties": {"date": "08/28/2018", "city": "Mecca", "region": "Riverside County (California, USA)", "positive": "SLEV", "title": "YTD Positive Mosquito Pool"}}, {"geometry": {"type": "Point", "coordinates": [-118.90178123445362, 35.25870517172669]}, "type": "Feature", "properties": {"date": "08/28/2018", "city": "Lamont", "region": "Kern County (California, USA)", "positive": "SLEV", "title": "YTD Positive Mosquito Pool"}}, {"geometry": {"type": "Point", "coordinates": [-119.022378555375, 35.3562974624309]}, "type": "Feature", "properties": {"date": "08/29/2018", "city": "Bakersfield", "region": "Kern County (California, USA)", "positive": "SLEV", "title": "YTD Positive Mosquito Pool"}}, {"geometry": {"type": "Point", "coordinates": [-119.8173937438496, 36.75710363500153]}, "type": "Feature", "properties": {"date": "08/28/2018", "city": "Fresno", "region": "Fresno County (California, USA)", "positive": "SLEV", "title": "YTD Positive Mosquito Pool"}}, {"geometry": {"type": "Point", "coordinates": [-119.34173412911579, 36.308271620100435]}, "type": "Feature", "properties": {"date": "08/28/2018", "city": "Visalia", "region": "Tulare County (California, USA)", "positive": "SLEV", "title": "YTD Positive Mosquito Pool"}}, {"geometry": {"type": "Point", "coordinates": [-119.2742052426645, 36.31975728475962]}, "type": "Feature", "properties": {"date": "08/28/2018", "city": "Visalia", "region": "Tulare County (California, USA)", "positive": "SLEV", "title": "YTD Positive Mosquito Pool"}}, {"geometry": {"type": "Point", "coordinates": [-119.3605787827269, 36.30493318097523]}, "type": "Feature", "properties": {"date": "08/29/2018", "city": "Visalia", "region": "Tulare County (California, USA)", "positive": "SLEV", "title": "YTD Positive Mosquito Pool"}}, {"geometry": {"type": "Point", "coordinates": [-119.33859828323159, 36.306806426377904]}, "type": "Feature", "properties": {"date": "08/29/2018", "city": "Visalia", "region": "Tulare County (California, USA)", "positive": "SLEV", "title": "YTD Positive Mosquito Pool"}}, {"geometry": {"type": "Point", "coordinates": [-119.36990711505567, 36.57164191910977]}, "type": "Feature", "properties": {"date": "08/29/2018", "city": "Dinuba", "region": "Tulare County (California, USA)", "positive": "SLEV", "title": "YTD Positive Mosquito Pool"}}, {"geometry": {"type": "Point", "coordinates": [-119.14755297757694, 35.3476743387511]}, "type": "Feature", "properties": {"date": "08/30/2018", "city": "Bakersfield", "region": "Kern County (California, USA)", "positive": "SLEV", "title": "YTD Positive Mosquito Pool"}}, {"geometry": {"type": "Point", "coordinates": [-119.30168526116462, 36.302327088875735]}, "type": "Feature", "properties": {"date": "08/30/2018", "city": "Visalia", "region": "Tulare County (California, USA)", "positive": "SLEV", "title": "YTD Positive Mosquito Pool"}}, {"geometry": {"type": "Point", "coordinates": [-119.7883401464837, 36.31084731549264]}, "type": "Feature", "properties": {"date": "08/27/2018", "city": null, "region": "Kings County (California, USA)", "positive": "SLEV", "title": "YTD Positive Mosquito Pool"}}, {"geometry": {"type": "Point", "coordinates": [-119.7875524377842, 36.31220640233551]}, "type": "Feature", "properties": {"date": "08/27/2018", "city": null, "region": "Kings County (California, USA)", "positive": "SLEV", "title": "YTD Positive Mosquito Pool"}}, {"geometry": {"type": "Point", "coordinates": [-119.78752030696872, 36.30798804539364]}, "type": "Feature", "properties": {"date": "08/27/2018", "city": null, "region": "Kings County (California, USA)", "positive": "SLEV", "title": "YTD Positive Mosquito Pool"}}, {"geometry": {"type": "Point", "coordinates": [-119.78185213175527, 36.31001001381084]}, "type": "Feature", "properties": {"date": "08/27/2018", "city": null, "region": "Kings County (California, USA)", "positive": "SLEV", "title": "YTD Positive Mosquito Pool"}}, {"geometry": {"type": "Point", "coordinates": [-119.67465889756039, 36.290359483153416]}, "type": "Feature", "properties": {"date": "08/28/2018", "city": "Hanford", "region": "Kings County (California, USA)", "positive": "SLEV", "title": "YTD Positive Mosquito Pool"}}, {"geometry": {"type": "Point", "coordinates": [-119.66151954555775, 36.35153217536431]}, "type": "Feature", "properties": {"date": "08/30/2018", "city": "Hanford", "region": "Kings County (California, USA)", "positive": "SLEV", "title": "YTD Positive Mosquito Pool"}}, {"geometry": {"type": "Point", "coordinates": [-119.21303103072569, 36.308005209222]}, "type": "Feature", "properties": {"date": "08/31/2018", "city": "Farmersville", "region": "Tulare County (California, USA)", "positive": "SLEV", "title": "YTD Positive Mosquito Pool"}}, {"geometry": {"type": "Point", "coordinates": [-120.10907627098864, 36.95796456725612]}, "type": "Feature", "properties": {"date": "08/31/2018", "city": "Madera", "region": "Madera County (California, USA)", "positive": "SLEV", "title": "YTD Positive Mosquito Pool"}}, {"geometry": {"type": "Point", "coordinates": [-119.65819573742407, 35.6147409682896]}, "type": "Feature", "properties": {"date": "09/05/2018", "city": "Lost Hills", "region": "Kern County (California, USA)", "positive": "SLEV", "title": "YTD Positive Mosquito Pool"}}, {"geometry": {"type": "Point", "coordinates": [-116.07820445830859, 33.52725620446228]}, "type": "Feature", "properties": {"date": "09/05/2018", "city": "Mecca", "region": "Riverside County (California, USA)", "positive": "SLEV", "title": "YTD Positive Mosquito Pool"}}, {"geometry": {"type": "Point", "coordinates": [-116.08123304735648, 33.541188573463636]}, "type": "Feature", "properties": {"date": "09/05/2018", "city": "Mecca", "region": "Riverside County (California, USA)", "positive": "SLEV", "title": "YTD Positive Mosquito Pool"}}, {"geometry": {"type": "Point", "coordinates": [-116.0801421640368, 33.5396773424123]}, "type": "Feature", "properties": {"date": "09/05/2018", "city": "Mecca", "region": "Riverside County (California, USA)", "positive": "SLEV", "title": "YTD Positive Mosquito Pool"}}, {"geometry": {"type": "Point", "coordinates": [-116.07445152373867, 33.54332916701958]}, "type": "Feature", "properties": {"date": "09/05/2018", "city": "Mecca", "region": "Riverside County (California, USA)", "positive": "SLEV", "title": "YTD Positive Mosquito Pool"}}, {"geometry": {"type": "Point", "coordinates": [-116.07669955399454, 33.51662541875601]}, "type": "Feature", "properties": {"date": "09/05/2018", "city": "Mecca", "region": "Riverside County (California, USA)", "positive": "SLEV", "title": "YTD Positive Mosquito Pool"}}, {"geometry": {"type": "Point", "coordinates": [-116.08183495439995, 33.51607258148917]}, "type": "Feature", "properties": {"date": "09/05/2018", "city": "Mecca", "region": "Riverside County (California, USA)", "positive": "SLEV", "title": "YTD Positive Mosquito Pool"}}, {"geometry": {"type": "Point", "coordinates": [-120.54002384876988, 36.97791698863181]}, "type": "Feature", "properties": {"date": "09/05/2018", "city": "Firebaugh, ca", "region": "Fresno County (California, USA)", "positive": "SLEV", "title": "YTD Positive Mosquito Pool"}}, {"geometry": {"type": "Point", "coordinates": [-120.33719026495625, 36.73723231805958]}, "type": "Feature", "properties": {"date": "09/05/2018", "city": "Mendota", "region": "Fresno County (California, USA)", "positive": "SLEV", "title": "YTD Positive Mosquito Pool"}}, {"geometry": {"type": "Point", "coordinates": [-118.91381177367997, 35.199963414423856]}, "type": "Feature", "properties": {"date": "09/05/2018", "city": "Arvin", "region": "Kern County (California, USA)", "positive": "SLEV", "title": "YTD Positive Mosquito Pool"}}, {"geometry": {"type": "Point", "coordinates": [-119.40280089453199, 36.552769110871715]}, "type": "Feature", "properties": {"date": "09/05/2018", "city": "Dinuba", "region": "Tulare County (California, USA)", "positive": "SLEV", "title": "YTD Positive Mosquito Pool"}}, {"geometry": {"type": "Point", "coordinates": [-119.35633466070414, 36.33178806787869]}, "type": "Feature", "properties": {"date": "09/05/2018", "city": "Visalia", "region": "Tulare County (California, USA)", "positive": "SLEV", "title": "YTD Positive Mosquito Pool"}}, {"geometry": {"type": "Point", "coordinates": [-119.41181702165979, 36.3448545960487]}, "type": "Feature", "properties": {"date": "09/05/2018", "city": "Goshen", "region": "Tulare County (California, USA)", "positive": "SLEV", "title": "YTD Positive Mosquito Pool"}}, {"geometry": {"type": "Point", "coordinates": [-119.35803980492727, 36.3234607948532]}, "type": "Feature", "properties": {"date": "09/05/2018", "city": "Visalia", "region": "Tulare County (California, USA)", "positive": "SLEV", "title": "YTD Positive Mosquito Pool"}}, {"geometry": {"type": "Point", "coordinates": [-119.33984923263009, 36.29366005836178]}, "type": "Feature", "properties": {"date": "09/05/2018", "city": "Visalia", "region": "Tulare County (California, USA)", "positive": "SLEV", "title": "YTD Positive Mosquito Pool"}}, {"geometry": {"type": "Point", "coordinates": [-119.34162787368452, 36.319548133146455]}, "type": "Feature", "properties": {"date": "09/05/2018", "city": "Visalia", "region": "Tulare County (California, USA)", "positive": "SLEV", "title": "YTD Positive Mosquito Pool"}}, {"geometry": {"type": "Point", "coordinates": [-119.32521616166026, 36.333396544645346]}, "type": "Feature", "properties": {"date": "09/05/2018", "city": "Visalia", "region": "Tulare County (California, USA)", "positive": "SLEV", "title": "YTD Positive Mosquito Pool"}}, {"geometry": {"type": "Point", "coordinates": [-119.33880724115122, 36.30737647601983]}, "type": "Feature", "properties": {"date": "09/05/2018", "city": "Visalia", "region": "Tulare County (California, USA)", "positive": "SLEV", "title": "YTD Positive Mosquito Pool"}}, {"geometry": {"type": "Point", "coordinates": [-119.36911131428266, 36.56473799896994]}, "type": "Feature", "properties": {"date": "09/05/2018", "city": "Dinuba", "region": "Tulare County (California, USA)", "positive": "SLEV", "title": "YTD Positive Mosquito Pool"}}, {"geometry": {"type": "Point", "coordinates": [-119.36668030924744, 36.569671789995745]}, "type": "Feature", "properties": {"date": "09/05/2018", "city": "Dinuba", "region": "Tulare County (California, USA)", "positive": "SLEV", "title": "YTD Positive Mosquito Pool"}}, {"geometry": {"type": "Point", "coordinates": [-119.36470715820293, 36.56927149171498]}, "type": "Feature", "properties": {"date": "09/05/2018", "city": "Dinuba", "region": "Tulare County (California, USA)", "positive": "SLEV", "title": "YTD Positive Mosquito Pool"}}, {"geometry": {"type": "Point", "coordinates": [-119.37292248714864, 36.57147017051766]}, "type": "Feature", "properties": {"date": "09/05/2018", "city": "Dinuba", "region": "Tulare County (California, USA)", "positive": "SLEV", "title": "YTD Positive Mosquito Pool"}}, {"geometry": {"type": "Point", "coordinates": [-119.38162330321462, 36.57130791876385]}, "type": "Feature", "properties": {"date": "09/05/2018", "city": "Dinuba", "region": "Tulare County (California, USA)", "positive": "SLEV", "title": "YTD Positive Mosquito Pool"}}, {"geometry": {"type": "Point", "coordinates": [-120.09621845309861, 37.02120863255283]}, "type": "Feature", "properties": {"date": "09/07/2018", "city": "Madera", "region": "Madera County (California, USA)", "positive": "SLEV", "title": "YTD Positive Mosquito Pool"}}, {"geometry": {"type": "Point", "coordinates": [-119.32686493544927, 36.36557376088273]}, "type": "Feature", "properties": {"date": "09/07/2018", "city": "Visalia", "region": "Tulare County (California, USA)", "positive": "SLEV", "title": "YTD Positive Mosquito Pool"}}, {"geometry": {"type": "Point", "coordinates": [-119.30120326849823, 36.34472516073535]}, "type": "Feature", "properties": {"date": "09/07/2018", "city": "Visalia", "region": "Tulare County (California, USA)", "positive": "SLEV", "title": "YTD Positive Mosquito Pool"}}, {"geometry": {"type": "Point", "coordinates": [-119.2783885753647, 36.554892271677645]}, "type": "Feature", "properties": {"date": "09/07/2018", "city": "Orosi", "region": "Tulare County (California, USA)", "positive": "SLEV", "title": "YTD Positive Mosquito Pool"}}, {"geometry": {"type": "Point", "coordinates": [-119.34421577313844, 36.315919358591266]}, "type": "Feature", "properties": {"date": "09/07/2018", "city": "Visalia", "region": "Tulare County (California, USA)", "positive": "SLEV", "title": "YTD Positive Mosquito Pool"}}, {"geometry": {"type": "Point", "coordinates": [-116.04453698141343, 33.53601165547249]}, "type": "Feature", "properties": {"date": "09/11/2018", "city": "Mecca", "region": "Riverside County (California, USA)", "positive": "SLEV", "title": "YTD Positive Mosquito Pool"}}, {"geometry": {"type": "Point", "coordinates": [-116.06151676102955, 33.53289498093796]}, "type": "Feature", "properties": {"date": "09/11/2018", "city": "Mecca", "region": "Riverside County (California, USA)", "positive": "SLEV", "title": "YTD Positive Mosquito Pool"}}, {"geometry": {"type": "Point", "coordinates": [-116.03097497996758, 33.537085213361365]}, "type": "Feature", "properties": {"date": "09/11/2018", "city": "Mecca", "region": "Riverside County (California, USA)", "positive": "SLEV", "title": "YTD Positive Mosquito Pool"}}, {"geometry": {"type": "Point", "coordinates": [-119.23257594398378, 35.77387653030169]}, "type": "Feature", "properties": {"date": "09/11/2018", "city": "Delano", "region": "Kern County (California, USA)", "positive": "SLEV", "title": "YTD Positive Mosquito Pool"}}, {"geometry": {"type": "Point", "coordinates": [-120.45892099859283, 36.844517945091184]}, "type": "Feature", "properties": {"date": "09/11/2018", "city": "Firebaugh", "region": "Fresno County (California, USA)", "positive": "SLEV", "title": "YTD Positive Mosquito Pool"}}, {"geometry": {"type": "Point", "coordinates": [-120.56628962131546, 36.911629523032715]}, "type": "Feature", "properties": {"date": "09/11/2018", "city": "Dos Palos", "region": "Fresno County (California, USA)", "positive": "SLEV", "title": "YTD Positive Mosquito Pool"}}, {"geometry": {"type": "Point", "coordinates": [-120.44933883977913, 36.80571148879103]}, "type": "Feature", "properties": {"date": "09/11/2018", "city": "Firebaugh", "region": "Fresno County (California, USA)", "positive": "SLEV", "title": "YTD Positive Mosquito Pool"}}, {"geometry": {"type": "Point", "coordinates": [-119.33799124001305, 36.34649146113108]}, "type": "Feature", "properties": {"date": "09/11/2018", "city": "Visalia", "region": "Tulare County (California, USA)", "positive": "SLEV", "title": "YTD Positive Mosquito Pool"}}, {"geometry": {"type": "Point", "coordinates": [-119.34152659200207, 36.35330887499863]}, "type": "Feature", "properties": {"date": "09/11/2018", "city": "Visalia", "region": "Tulare County (California, USA)", "positive": "SLEV", "title": "YTD Positive Mosquito Pool"}}, {"geometry": {"type": "Point", "coordinates": [-119.21565466710722, 36.30426377189275]}, "type": "Feature", "properties": {"date": "09/11/2018", "city": "Farmersville", "region": "Tulare County (California, USA)", "positive": "SLEV", "title": "YTD Positive Mosquito Pool"}}, {"geometry": {"type": "Point", "coordinates": [-119.34518336035234, 36.30787855261899]}, "type": "Feature", "properties": {"date": "09/12/2018", "city": "Visalia", "region": "Tulare County (California, USA)", "positive": "SLEV", "title": "YTD Positive Mosquito Pool"}}, {"geometry": {"type": "Point", "coordinates": [-119.37198057451218, 36.57199889638127]}, "type": "Feature", "properties": {"date": "09/12/2018", "city": "Dinuba", "region": "Tulare County (California, USA)", "positive": "SLEV", "title": "YTD Positive Mosquito Pool"}}, {"geometry": {"type": "Point", "coordinates": [-119.36541951933616, 36.56929624316724]}, "type": "Feature", "properties": {"date": "09/12/2018", "city": "Dinuba", "region": "Tulare County (California, USA)", "positive": "SLEV", "title": "YTD Positive Mosquito Pool"}}, {"geometry": {"type": "Point", "coordinates": [-119.36923879792786, 36.56956542950363]}, "type": "Feature", "properties": {"date": "09/12/2018", "city": "Dinuba", "region": "Tulare County (California, USA)", "positive": "SLEV", "title": "YTD Positive Mosquito Pool"}}, {"geometry": {"type": "Point", "coordinates": [-119.36722027224737, 36.563871038664594]}, "type": "Feature", "properties": {"date": "09/12/2018", "city": "Dinuba", "region": "Tulare County (California, USA)", "positive": "SLEV", "title": "YTD Positive Mosquito Pool"}}, {"geometry": {"type": "Point", "coordinates": [-119.16318769301711, 35.34186767734485]}, "type": "Feature", "properties": {"date": "09/13/2018", "city": "Bakersfield", "region": "Kern County (California, USA)", "positive": "SLEV", "title": "YTD Positive Mosquito Pool"}}, {"geometry": {"type": "Point", "coordinates": [-119.51318016420142, 36.72268966841243]}, "type": "Feature", "properties": {"date": "09/13/2018", "city": "Sanger", "region": "Fresno County (California, USA)", "positive": "SLEV", "title": "YTD Positive Mosquito Pool"}}, {"geometry": {"type": "Point", "coordinates": [-119.5855006329537, 36.330156707850854]}, "type": "Feature", "properties": {"date": "09/10/2018", "city": "Hanford", "region": "Kings County (California, USA)", "positive": "SLEV", "title": "YTD Positive Mosquito Pool"}}, {"geometry": {"type": "Point", "coordinates": [-119.58661448874332, 36.3392224303551]}, "type": "Feature", "properties": {"date": "09/10/2018", "city": "Hanford", "region": "Kings County (California, USA)", "positive": "SLEV", "title": "YTD Positive Mosquito Pool"}}, {"geometry": {"type": "Point", "coordinates": [-119.58102202131361, 36.334662206710135]}, "type": "Feature", "properties": {"date": "09/10/2018", "city": "Hanford", "region": "Kings County (California, USA)", "positive": "SLEV", "title": "YTD Positive Mosquito Pool"}}, {"geometry": {"type": "Point", "coordinates": [-119.67734254305185, 36.29123174026427]}, "type": "Feature", "properties": {"date": "09/13/2018", "city": "Hanford", "region": "Kings County (California, USA)", "positive": "SLEV", "title": "YTD Positive Mosquito Pool"}}, {"geometry": {"type": "Point", "coordinates": [-119.356024990675, 36.31599415985996]}, "type": "Feature", "properties": {"date": "09/14/2018", "city": "Visalia", "region": "Tulare County (California, USA)", "positive": "SLEV", "title": "YTD Positive Mosquito Pool"}}, {"geometry": {"type": "Point", "coordinates": [-119.36066575608578, 36.34617454012484]}, "type": "Feature", "properties": {"date": "09/14/2018", "city": "Goshen", "region": "Tulare County (California, USA)", "positive": "SLEV", "title": "YTD Positive Mosquito Pool"}}, {"geometry": {"type": "Point", "coordinates": [-119.35748919658182, 36.35181506285025]}, "type": "Feature", "properties": {"date": "09/14/2018", "city": "Goshen", "region": "Tulare County (California, USA)", "positive": "SLEV", "title": "YTD Positive Mosquito Pool"}}, {"geometry": {"type": "Point", "coordinates": [-119.36064717755136, 36.3522377325538]}, "type": "Feature", "properties": {"date": "09/14/2018", "city": "Goshen", "region": "Tulare County (California, USA)", "positive": "SLEV", "title": "YTD Positive Mosquito Pool"}}, {"geometry": {"type": "Point", "coordinates": [-120.05220680680837, 36.929017283810474]}, "type": "Feature", "properties": {"date": "09/11/2018", "city": "Madera", "region": "Madera County (California, USA)", "positive": "SLEV", "title": "YTD Positive Mosquito Pool"}}, {"geometry": {"type": "Point", "coordinates": [-120.04526426582565, 36.927473044555455]}, "type": "Feature", "properties": {"date": "09/13/2018", "city": "Madera", "region": "Madera County (California, USA)", "positive": "SLEV", "title": "YTD Positive Mosquito Pool"}}, {"geometry": {"type": "Point", "coordinates": [-120.05054292159302, 36.9218275690686]}, "type": "Feature", "properties": {"date": "09/13/2018", "city": "Madera", "region": "Madera County (California, USA)", "positive": "SLEV", "title": "YTD Positive Mosquito Pool"}}, {"geometry": {"type": "Point", "coordinates": [-120.23950998494567, 36.92695080771477]}, "type": "Feature", "properties": {"date": "09/13/2018", "city": null, "region": "Madera County (California, USA)", "positive": "SLEV", "title": "YTD Positive Mosquito Pool"}}, {"geometry": {"type": "Point", "coordinates": [-116.07799968515428, 33.514522894508886]}, "type": "Feature", "properties": {"date": "09/18/2018", "city": "Mecca", "region": "Riverside County (California, USA)", "positive": "SLEV", "title": "YTD Positive Mosquito Pool"}}, {"geometry": {"type": "Point", "coordinates": [-116.08609990037637, 33.518754509886136]}, "type": "Feature", "properties": {"date": "09/18/2018", "city": "Mecca", "region": "Riverside County (California, USA)", "positive": "SLEV", "title": "YTD Positive Mosquito Pool"}}, {"geometry": {"type": "Point", "coordinates": [-116.11366952704205, 33.536555036625835]}, "type": "Feature", "properties": {"date": "09/18/2018", "city": "Mecca", "region": "Riverside County (California, USA)", "positive": "SLEV", "title": "YTD Positive Mosquito Pool"}}, {"geometry": {"type": "Point", "coordinates": [-116.11331627935594, 33.543128873505296]}, "type": "Feature", "properties": {"date": "09/18/2018", "city": "Mecca", "region": "Riverside County (California, USA)", "positive": "SLEV", "title": "YTD Positive Mosquito Pool"}}, {"geometry": {"type": "Point", "coordinates": [-119.31928472904274, 36.33248028112741]}, "type": "Feature", "properties": {"date": "09/18/2018", "city": "Visalia", "region": "Tulare County (California, USA)", "positive": "SLEV", "title": "YTD Positive Mosquito Pool"}}, {"geometry": {"type": "Point", "coordinates": [-119.21389573233628, 36.30060193316617]}, "type": "Feature", "properties": {"date": "09/18/2018", "city": "Farmersville", "region": "Tulare County (California, USA)", "positive": "SLEV", "title": "YTD Positive Mosquito Pool"}}, {"geometry": {"type": "Point", "coordinates": [-119.34301719931375, 36.345373585896404]}, "type": "Feature", "properties": {"date": "09/18/2018", "city": "Visalia", "region": "Tulare County (California, USA)", "positive": "SLEV", "title": "YTD Positive Mosquito Pool"}}, {"geometry": {"type": "Point", "coordinates": [-119.36140682325602, 36.30724768710222]}, "type": "Feature", "properties": {"date": "09/19/2018", "city": "Visalia", "region": "Tulare County (California, USA)", "positive": "SLEV", "title": "YTD Positive Mosquito Pool"}}, {"geometry": {"type": "Point", "coordinates": [-119.36323331198965, 36.57039665906826]}, "type": "Feature", "properties": {"date": "09/19/2018", "city": "Dinuba", "region": "Tulare County (California, USA)", "positive": "SLEV", "title": "YTD Positive Mosquito Pool"}}, {"geometry": {"type": "Point", "coordinates": [-119.80154355575038, 36.80935572636996]}, "type": "Feature", "properties": {"date": "09/19/2018", "city": null, "region": "Fresno County (California, USA)", "positive": "SLEV", "title": "YTD Positive Mosquito Pool"}}, {"geometry": {"type": "Point", "coordinates": [-119.28483664109633, 35.72121251744664]}, "type": "Feature", "properties": {"date": "09/20/2018", "city": "McFarland", "region": "Kern County (California, USA)", "positive": "SLEV", "title": "YTD Positive Mosquito Pool"}}, {"geometry": {"type": "Point", "coordinates": [-119.23073809895403, 35.71318506448355]}, "type": "Feature", "properties": {"date": "09/20/2018", "city": "McFarland", "region": "Kern County (California, USA)", "positive": "SLEV", "title": "YTD Positive Mosquito Pool"}}, {"geometry": {"type": "Point", "coordinates": [-119.32281506823922, 36.33704955847904]}, "type": "Feature", "properties": {"date": "09/20/2018", "city": "Visalia", "region": "Tulare County (California, USA)", "positive": "SLEV", "title": "YTD Positive Mosquito Pool"}}, {"geometry": {"type": "Point", "coordinates": [-119.30869276863922, 36.34527392183654]}, "type": "Feature", "properties": {"date": "09/20/2018", "city": "Visalia", "region": "Tulare County (California, USA)", "positive": "SLEV", "title": "YTD Positive Mosquito Pool"}}, {"geometry": {"type": "Point", "coordinates": [-119.57325422514626, 36.28428027968979]}, "type": "Feature", "properties": {"date": "09/17/2018", "city": "Hanford", "region": "Kings County (California, USA)", "positive": "SLEV", "title": "YTD Positive Mosquito Pool"}}, {"geometry": {"type": "Point", "coordinates": [-119.69844450224427, 36.2961250796816]}, "type": "Feature", "properties": {"date": "09/18/2018", "city": "Armona", "region": "Kings County (California, USA)", "positive": "SLEV", "title": "YTD Positive Mosquito Pool"}}, {"geometry": {"type": "Point", "coordinates": [-119.68470687592259, 36.337389550477994]}, "type": "Feature", "properties": {"date": "09/19/2018", "city": "Hanford", "region": "Kings County (California, USA)", "positive": "SLEV", "title": "YTD Positive Mosquito Pool"}}, {"geometry": {"type": "Point", "coordinates": [-116.03865368838859, 33.53409274715055]}, "type": "Feature", "properties": {"date": "09/21/2018", "city": "Mecca", "region": "Riverside County (California, USA)", "positive": "SLEV", "title": "YTD Positive Mosquito Pool"}}, {"geometry": {"type": "Point", "coordinates": [-120.04687243837562, 36.927551312500206]}, "type": "Feature", "properties": {"date": "09/18/2018", "city": "Madera", "region": "Madera County (California, USA)", "positive": "SLEV", "title": "YTD Positive Mosquito Pool"}}, {"geometry": {"type": "Point", "coordinates": [-120.04629409027852, 36.925086132791364]}, "type": "Feature", "properties": {"date": "09/18/2018", "city": "Madera", "region": "Madera County (California, USA)", "positive": "SLEV", "title": "YTD Positive Mosquito Pool"}}, {"geometry": {"type": "Point", "coordinates": [-120.1101721823378, 36.95736931464458]}, "type": "Feature", "properties": {"date": "09/19/2018", "city": "Madera", "region": "Madera County (California, USA)", "positive": "SLEV", "title": "YTD Positive Mosquito Pool"}}, {"geometry": {"type": "Point", "coordinates": [-120.15218524911155, 37.04500927745685]}, "type": "Feature", "properties": {"date": "09/20/2018", "city": "Madera", "region": "Madera County (California, USA)", "positive": "SLEV", "title": "YTD Positive Mosquito Pool"}}, {"geometry": {"type": "Point", "coordinates": [-120.14073341272089, 37.07714180707548]}, "type": "Feature", "properties": {"date": "09/20/2018", "city": "Madera", "region": "Madera County (California, USA)", "positive": "SLEV", "title": "YTD Positive Mosquito Pool"}}, {"geometry": {"type": "Point", "coordinates": [-119.67015889258506, 36.83055476258111]}, "type": "Feature", "properties": {"date": "09/19/2018", "city": "Clovis", "region": "Fresno County (California, USA)", "positive": "SLEV", "title": "YTD Positive Mosquito Pool"}}, {"geometry": {"type": "Point", "coordinates": [-119.42825735643372, 36.60242256505167]}, "type": "Feature", "properties": {"date": "09/20/2018", "city": "Reedley", "region": "Fresno County (California, USA)", "positive": "SLEV", "title": "YTD Positive Mosquito Pool"}}, {"geometry": {"type": "Point", "coordinates": [-119.36182527708684, 36.34687987456645]}, "type": "Feature", "properties": {"date": "09/21/2018", "city": "Goshen", "region": "Tulare County (California, USA)", "positive": "SLEV", "title": "YTD Positive Mosquito Pool"}}, {"geometry": {"type": "Point", "coordinates": [-116.02956936303825, 33.58611286367207]}, "type": "Feature", "properties": {"date": "09/25/2018", "city": "Mecca", "region": "Riverside County (California, USA)", "positive": "SLEV", "title": "YTD Positive Mosquito Pool"}}, {"geometry": {"type": "Point", "coordinates": [-116.02987273695733, 33.52413150877333]}, "type": "Feature", "properties": {"date": "09/25/2018", "city": "Mecca", "region": "Riverside County (California, USA)", "positive": "SLEV", "title": "YTD Positive Mosquito Pool"}}, {"geometry": {"type": "Point", "coordinates": [-116.03057107171668, 33.527891486463524]}, "type": "Feature", "properties": {"date": "09/25/2018", "city": "Mecca", "region": "Riverside County (California, USA)", "positive": "SLEV", "title": "YTD Positive Mosquito Pool"}}, {"geometry": {"type": "Point", "coordinates": [-116.03218675248884, 33.52881541906189]}, "type": "Feature", "properties": {"date": "09/25/2018", "city": "Mecca", "region": "Riverside County (California, USA)", "positive": "SLEV", "title": "YTD Positive Mosquito Pool"}}, {"geometry": {"type": "Point", "coordinates": [-116.03151252611717, 33.53525790593884]}, "type": "Feature", "properties": {"date": "09/25/2018", "city": "Mecca", "region": "Riverside County (California, USA)", "positive": "SLEV", "title": "YTD Positive Mosquito Pool"}}, {"geometry": {"type": "Point", "coordinates": [-115.95574166517518, 33.52694733988021]}, "type": "Feature", "properties": {"date": "09/25/2018", "city": "Mecca", "region": "Riverside County (California, USA)", "positive": "SLEV", "title": "YTD Positive Mosquito Pool"}}, {"geometry": {"type": "Point", "coordinates": [-119.33629815418715, 36.349026463905346]}, "type": "Feature", "properties": {"date": "09/25/2018", "city": "Visalia", "region": "Tulare County (California, USA)", "positive": "SLEV", "title": "YTD Positive Mosquito Pool"}}, {"geometry": {"type": "Point", "coordinates": [-119.3597028951441, 36.34817930038926]}, "type": "Feature", "properties": {"date": "09/25/2018", "city": "Goshen", "region": "Tulare County (California, USA)", "positive": "SLEV", "title": "YTD Positive Mosquito Pool"}}, {"geometry": {"type": "Point", "coordinates": [-119.30649045966663, 36.31036234425041]}, "type": "Feature", "properties": {"date": "09/25/2018", "city": "Visalia", "region": "Tulare County (California, USA)", "positive": "SLEV", "title": "YTD Positive Mosquito Pool"}}, {"geometry": {"type": "Point", "coordinates": [-119.34543802668071, 36.30121192938118]}, "type": "Feature", "properties": {"date": "09/26/2018", "city": "Visalia", "region": "Tulare County (California, USA)", "positive": "SLEV", "title": "YTD Positive Mosquito Pool"}}, {"geometry": {"type": "Point", "coordinates": [-119.3440378624528, 36.31916932166983]}, "type": "Feature", "properties": {"date": "09/26/2018", "city": "Visalia", "region": "Tulare County (California, USA)", "positive": "SLEV", "title": "YTD Positive Mosquito Pool"}}, {"geometry": {"type": "Point", "coordinates": [-119.34149740182967, 36.34490716924516]}, "type": "Feature", "properties": {"date": "09/26/2018", "city": "Visalia", "region": "Tulare County (California, USA)", "positive": "SLEV", "title": "YTD Positive Mosquito Pool"}}, {"geometry": {"type": "Point", "coordinates": [-120.05442832982544, 36.9244749985591]}, "type": "Feature", "properties": {"date": "09/25/2018", "city": "Madera", "region": "Madera County (California, USA)", "positive": "SLEV", "title": "YTD Positive Mosquito Pool"}}, {"geometry": {"type": "Point", "coordinates": [-120.15201210055531, 37.04346297741787]}, "type": "Feature", "properties": {"date": "09/28/2018", "city": "Madera", "region": "Madera County (California, USA)", "positive": "SLEV", "title": "YTD Positive Mosquito Pool"}}, {"geometry": {"type": "Point", "coordinates": [-119.38276910303989, 36.54803824334192]}, "type": "Feature", "properties": {"date": "09/27/2018", "city": "Dinuba", "region": "Tulare County (California, USA)", "positive": "SLEV", "title": "YTD Positive Mosquito Pool"}}, {"geometry": {"type": "Point", "coordinates": [-119.32135494305268, 36.287393775593046]}, "type": "Feature", "properties": {"date": "09/27/2018", "city": "Visalia", "region": "Tulare County (California, USA)", "positive": "SLEV", "title": "YTD Positive Mosquito Pool"}}, {"geometry": {"type": "Point", "coordinates": [-119.61898729297405, 36.57670779365287]}, "type": "Feature", "properties": {"date": "09/24/2018", "city": "Selma", "region": null, "positive": "SLEV", "title": "YTD Positive Mosquito Pool"}}, {"geometry": {"type": "Point", "coordinates": [-119.61713231674852, 36.57711532608186]}, "type": "Feature", "properties": {"date": "09/24/2018", "city": "Selma", "region": null, "positive": "SLEV", "title": "YTD Positive Mosquito Pool"}}, {"geometry": {"type": "Point", "coordinates": [-119.62237262423136, 36.57386713025782]}, "type": "Feature", "properties": {"date": "09/24/2018", "city": "Selma", "region": null, "positive": "SLEV", "title": "YTD Positive Mosquito Pool"}}, {"geometry": {"type": "Point", "coordinates": [-119.61627508117185, 36.575532384596386]}, "type": "Feature", "properties": {"date": "09/24/2018", "city": "Selma", "region": null, "positive": "SLEV", "title": "YTD Positive Mosquito Pool"}}, {"geometry": {"type": "Point", "coordinates": [-119.61435703379416, 36.57915820352867]}, "type": "Feature", "properties": {"date": "09/24/2018", "city": "Selma", "region": null, "positive": "SLEV", "title": "YTD Positive Mosquito Pool"}}, {"geometry": {"type": "Point", "coordinates": [-119.68178975577217, 36.334847072001544]}, "type": "Feature", "properties": {"date": "10/01/2018", "city": "Hanford", "region": "Kings County (California, USA)", "positive": "SLEV", "title": "YTD Positive Mosquito Pool"}}, {"geometry": {"type": "Point", "coordinates": [-119.73008648112564, 36.2284974770006]}, "type": "Feature", "properties": {"date": "10/01/2018", "city": "Lemoore", "region": "Kings County (California, USA)", "positive": "SLEV", "title": "YTD Positive Mosquito Pool"}}, {"geometry": {"type": "Point", "coordinates": [-120.65229020806919, 36.84633101534674]}, "type": "Feature", "properties": {"date": "10/09/2018", "city": "Firebaugh", "region": "Fresno County (California, USA)", "positive": "SLEV", "title": "YTD Positive Mosquito Pool"}}, {"geometry": {"type": "Point", "coordinates": [-116.02222500310057, 33.52140147942843]}, "type": "Feature", "properties": {"date": "10/10/2018", "city": "Mecca", "region": "Riverside County (California, USA)", "positive": "SLEV", "title": "YTD Positive Mosquito Pool"}}, {"geometry": {"type": "Point", "coordinates": [-116.06438044193699, 33.531594657553654]}, "type": "Feature", "properties": {"date": "10/10/2018", "city": "Mecca", "region": "Riverside County (California, USA)", "positive": "SLEV", "title": "YTD Positive Mosquito Pool"}}, {"geometry": {"type": "Point", "coordinates": [-119.58598587746783, 36.33592923419681]}, "type": "Feature", "properties": {"date": "10/08/2018", "city": "Hanford", "region": "Kings County (California, USA)", "positive": "SLEV", "title": "YTD Positive Mosquito Pool"}}, {"geometry": {"type": "Point", "coordinates": [-119.61449364549654, 36.574755106480076]}, "type": "Feature", "properties": {"date": "09/28/2018", "city": "Selma", "region": null, "positive": "SLEV", "title": "YTD Positive Mosquito Pool"}}]}