{"type": "FeatureCollection", "features": [{"geometry": {"type": "Point", "coordinates": [-119.89053514029989, 36.84060898276345]}, "type": "Feature", "properties": {"date": "06/09/2017", "city": null, "region": "Fresno County (California, USA)", "positive": "SLEV", "title": "YTD Positive Mosquito Pool"}}, {"geometry": {"type": "Point", "coordinates": [-118.95725015756217, 35.36083680063618]}, "type": "Feature", "properties": {"date": "06/20/2017", "city": "Bakersfield", "region": "Kern County (California, USA)", "positive": "SLEV", "title": "YTD Positive Mosquito Pool"}}, {"geometry": {"type": "Point", "coordinates": [-119.03128853926646, 35.37415900011478]}, "type": "Feature", "properties": {"date": "06/21/2017", "city": "Bakersfield", "region": "Kern County (California, USA)", "positive": "SLEV", "title": "YTD Positive Mosquito Pool"}}, {"geometry": {"type": "Point", "coordinates": [-119.71510779005543, 36.828539844194616]}, "type": "Feature", "properties": {"date": "06/27/2017", "city": "Clovis", "region": "Fresno County (California, USA)", "positive": "SLEV", "title": "YTD Positive Mosquito Pool"}}, {"geometry": {"type": "Point", "coordinates": [-119.25810472781039, 35.505996915064294]}, "type": "Feature", "properties": {"date": "06/29/2017", "city": "Shafter", "region": "Kern County (California, USA)", "positive": "SLEV", "title": "YTD Positive Mosquito Pool"}}, {"geometry": {"type": "Point", "coordinates": [-119.54313881542404, 36.48645337008698]}, "type": "Feature", "properties": {"date": "07/06/2017", "city": "Kingsburg", "region": "Kings County (California, USA)", "positive": "SLEV", "title": "YTD Positive Mosquito Pool"}}, {"geometry": {"type": "Point", "coordinates": [-119.50048100080696, 35.6552580190001]}, "type": "Feature", "properties": {"date": "07/11/2017", "city": "Wasco", "region": "Kern County (California, USA)", "positive": "SLEV", "title": "YTD Positive Mosquito Pool"}}, {"geometry": {"type": "Point", "coordinates": [-118.81632328570615, 35.15411433787265]}, "type": "Feature", "properties": {"date": "07/11/2017", "city": "Arvin", "region": "Kern County (California, USA)", "positive": "SLEV", "title": "YTD Positive Mosquito Pool"}}, {"geometry": {"type": "Point", "coordinates": [-119.28112159023804, 35.32174913586858]}, "type": "Feature", "properties": {"date": "07/12/2017", "city": "Bakersfield", "region": "Kern County (California, USA)", "positive": "SLEV", "title": "YTD Positive Mosquito Pool"}}, {"geometry": {"type": "Point", "coordinates": [-119.83588891163716, 36.28230812046768]}, "type": "Feature", "properties": {"date": "07/12/2017", "city": "Lemoore", "region": "Kings County (California, USA)", "positive": "SLEV", "title": "YTD Positive Mosquito Pool"}}, {"geometry": {"type": "Point", "coordinates": [-119.71102534307549, 36.832579741874575]}, "type": "Feature", "properties": {"date": "07/13/2017", "city": "Clovis", "region": "Fresno County (California, USA)", "positive": "SLEV", "title": "YTD Positive Mosquito Pool"}}, {"geometry": {"type": "Point", "coordinates": [-119.88734216502738, 36.375344316412125]}, "type": "Feature", "properties": {"date": "07/18/2017", "city": "Lemoore", "region": "Kings County (California, USA)", "positive": "SLEV", "title": "YTD Positive Mosquito Pool"}}, {"geometry": {"type": "Point", "coordinates": [-119.84173288334652, 36.38332703027084]}, "type": "Feature", "properties": {"date": "07/18/2017", "city": null, "region": "Kings County (California, USA)", "positive": "SLEV", "title": "YTD Positive Mosquito Pool"}}, {"geometry": {"type": "Point", "coordinates": [-119.7351383411636, 36.822175223165196]}, "type": "Feature", "properties": {"date": "07/25/2017", "city": "Fresno", "region": "Fresno County (California, USA)", "positive": "SLEV", "title": "YTD Positive Mosquito Pool"}}, {"geometry": {"type": "Point", "coordinates": [-119.72866192959133, 36.83262074707345]}, "type": "Feature", "properties": {"date": "07/25/2017", "city": "Fresno", "region": "Fresno County (California, USA)", "positive": "SLEV", "title": "YTD Positive Mosquito Pool"}}, {"geometry": {"type": "Point", "coordinates": [-119.75068444880148, 36.843470365506676]}, "type": "Feature", "properties": {"date": "07/25/2017", "city": "Fresno", "region": "Fresno County (California, USA)", "positive": "SLEV", "title": "YTD Positive Mosquito Pool"}}, {"geometry": {"type": "Point", "coordinates": [-116.04712222699986, 33.530470895799596]}, "type": "Feature", "properties": {"date": "07/26/2017", "city": "Mecca", "region": "Riverside County (California, USA)", "positive": "SLEV", "title": "YTD Positive Mosquito Pool"}}, {"geometry": {"type": "Point", "coordinates": [-119.75343230010088, 36.82537851835894]}, "type": "Feature", "properties": {"date": "07/27/2017", "city": "Fresno", "region": "Fresno County (California, USA)", "positive": "SLEV", "title": "YTD Positive Mosquito Pool"}}, {"geometry": {"type": "Point", "coordinates": [-121.12480667789364, 37.55969282494789]}, "type": "Feature", "properties": {"date": "08/01/2017", "city": "Modesto", "region": "Stanislaus County (California, USA)", "positive": "SLEV", "title": "YTD Positive Mosquito Pool"}}, {"geometry": {"type": "Point", "coordinates": [-121.55216924352702, 38.987429192290385]}, "type": "Feature", "properties": {"date": "07/31/2017", "city": "Plumas Lake", "region": "Yuba County (California, USA)", "positive": "SLEV", "title": "YTD Positive Mosquito Pool"}}, {"geometry": {"type": "Point", "coordinates": [-119.51515306190096, 36.514938703754325]}, "type": "Feature", "properties": {"date": "08/03/2017", "city": "Kingsburg", "region": "Tulare County (California, USA)", "positive": "SLEV", "title": "YTD Positive Mosquito Pool"}}, {"geometry": {"type": "Point", "coordinates": [-119.82059231864193, 36.75449371310882]}, "type": "Feature", "properties": {"date": "08/04/2017", "city": "Fresno", "region": "Fresno County (California, USA)", "positive": "SLEV", "title": "YTD Positive Mosquito Pool"}}, {"geometry": {"type": "Point", "coordinates": [-119.80106407581499, 36.7621133873684]}, "type": "Feature", "properties": {"date": "08/04/2017", "city": "FRESNO", "region": "Fresno County (California, USA)", "positive": "SLEV", "title": "YTD Positive Mosquito Pool"}}, {"geometry": {"type": "Point", "coordinates": [-119.79987595267053, 36.753959814349116]}, "type": "Feature", "properties": {"date": "08/03/2017", "city": "FRESNO", "region": "Fresno County (California, USA)", "positive": "SLEV", "title": "YTD Positive Mosquito Pool"}}, {"geometry": {"type": "Point", "coordinates": [-120.33007496170838, 36.71340983546221]}, "type": "Feature", "properties": {"date": "08/03/2017", "city": null, "region": "Fresno County (California, USA)", "positive": "SLEV", "title": "YTD Positive Mosquito Pool"}}, {"geometry": {"type": "Point", "coordinates": [-119.6566776514324, 36.81140783032349]}, "type": "Feature", "properties": {"date": "08/04/2017", "city": "Clovis", "region": "Fresno County (California, USA)", "positive": "SLEV", "title": "YTD Positive Mosquito Pool"}}, {"geometry": {"type": "Point", "coordinates": [-120.82754595434658, 37.51985077749023]}, "type": "Feature", "properties": {"date": "08/03/2017", "city": "Turlock", "region": "Stanislaus County (California, USA)", "positive": "SLEV", "title": "YTD Positive Mosquito Pool"}}, {"geometry": {"type": "Point", "coordinates": [-120.80358521553539, 37.499377415870136]}, "type": "Feature", "properties": {"date": "08/08/2017", "city": "Turlock", "region": "Stanislaus County (California, USA)", "positive": "SLEV", "title": "YTD Positive Mosquito Pool"}}, {"geometry": {"type": "Point", "coordinates": [-119.76206856052687, 36.777248595078845]}, "type": "Feature", "properties": {"date": "08/08/2017", "city": "Fresno", "region": "Fresno County (California, USA)", "positive": "SLEV", "title": "YTD Positive Mosquito Pool"}}, {"geometry": {"type": "Point", "coordinates": [-121.29624623711085, 38.97598165103316]}, "type": "Feature", "properties": {"date": "08/10/2017", "city": "Lincoln", "region": "Placer County (California, USA)", "positive": "SLEV", "title": "YTD Positive Mosquito Pool"}}, {"geometry": {"type": "Point", "coordinates": [-119.84807807421726, 36.535157458866664]}, "type": "Feature", "properties": {"date": "08/09/2017", "city": "Caruthers", "region": "Fresno County (California, USA)", "positive": "SLEV", "title": "YTD Positive Mosquito Pool"}}, {"geometry": {"type": "Point", "coordinates": [-119.58380801548715, 36.71405284032097]}, "type": "Feature", "properties": {"date": "08/10/2017", "city": "Sanger", "region": "Fresno County (California, USA)", "positive": "SLEV", "title": "YTD Positive Mosquito Pool"}}, {"geometry": {"type": "Point", "coordinates": [-120.30513039208651, 36.67579070240178]}, "type": "Feature", "properties": {"date": "08/10/2017", "city": "Mendota", "region": "Fresno County (California, USA)", "positive": "SLEV", "title": "YTD Positive Mosquito Pool"}}, {"geometry": {"type": "Point", "coordinates": [-119.83535955305895, 36.28484065740921]}, "type": "Feature", "properties": {"date": "08/08/2017", "city": "Lemoore", "region": "Kings County (California, USA)", "positive": "SLEV", "title": "YTD Positive Mosquito Pool"}}, {"geometry": {"type": "Point", "coordinates": [-119.88548067188, 36.37328511170371]}, "type": "Feature", "properties": {"date": "08/08/2017", "city": "Lemoore", "region": "Kings County (California, USA)", "positive": "SLEV", "title": "YTD Positive Mosquito Pool"}}, {"geometry": {"type": "Point", "coordinates": [-119.80607873901074, 36.30718204434616]}, "type": "Feature", "properties": {"date": "08/09/2017", "city": "Lemoore", "region": "Kings County (California, USA)", "positive": "SLEV", "title": "YTD Positive Mosquito Pool"}}, {"geometry": {"type": "Point", "coordinates": [-119.7225534903781, 36.222244079482486]}, "type": "Feature", "properties": {"date": "08/09/2017", "city": "Lemoore", "region": "Kings County (California, USA)", "positive": "SLEV", "title": "YTD Positive Mosquito Pool"}}, {"geometry": {"type": "Point", "coordinates": [-119.8452473024883, 36.27925582224586]}, "type": "Feature", "properties": {"date": "08/10/2017", "city": "Lemoore", "region": "Kings County (California, USA)", "positive": "SLEV", "title": "YTD Positive Mosquito Pool"}}, {"geometry": {"type": "Point", "coordinates": [-119.7997503555531, 36.7771396276468]}, "type": "Feature", "properties": {"date": "08/10/2017", "city": null, "region": "Fresno County (California, USA)", "positive": "SLEV", "title": "YTD Positive Mosquito Pool"}}, {"geometry": {"type": "Point", "coordinates": [-120.57171962242309, 36.90897886938245]}, "type": "Feature", "properties": {"date": "08/15/2017", "city": "Dos Palos", "region": "Fresno County (California, USA)", "positive": "SLEV", "title": "YTD Positive Mosquito Pool"}}, {"geometry": {"type": "Point", "coordinates": [-119.35451452270638, 36.22995803276419]}, "type": "Feature", "properties": {"date": "08/16/2017", "city": "Tulare", "region": "Tulare County (California, USA)", "positive": "SLEV", "title": "YTD Positive Mosquito Pool"}}, {"geometry": {"type": "Point", "coordinates": [-119.14198255914384, 35.77731471618528]}, "type": "Feature", "properties": {"date": "08/17/2017", "city": "Delano", "region": "Kern County (California, USA)", "positive": "SLEV", "title": "YTD Positive Mosquito Pool"}}, {"geometry": {"type": "Point", "coordinates": [-120.31195335949432, 36.7302069342285]}, "type": "Feature", "properties": {"date": "08/17/2017", "city": "Mendota", "region": "Fresno County (California, USA)", "positive": "SLEV", "title": "YTD Positive Mosquito Pool"}}, {"geometry": {"type": "Point", "coordinates": [-119.65193412946103, 36.36491684465658]}, "type": "Feature", "properties": {"date": "08/16/2017", "city": "Hanford", "region": "Kings County (California, USA)", "positive": "SLEV", "title": "YTD Positive Mosquito Pool"}}, {"geometry": {"type": "Point", "coordinates": [-119.64837835498932, 36.37057892809]}, "type": "Feature", "properties": {"date": "08/16/2017", "city": "Hanford", "region": "Kings County (California, USA)", "positive": "SLEV", "title": "YTD Positive Mosquito Pool"}}, {"geometry": {"type": "Point", "coordinates": [-119.23100698924735, 35.774839249156486]}, "type": "Feature", "properties": {"date": "08/22/2017", "city": "Delano", "region": "Kern County (California, USA)", "positive": "SLEV", "title": "YTD Positive Mosquito Pool"}}, {"geometry": {"type": "Point", "coordinates": [-120.43852833177372, 36.85864797730189]}, "type": "Feature", "properties": {"date": "08/22/2017", "city": null, "region": "Fresno County (California, USA)", "positive": "SLEV", "title": "YTD Positive Mosquito Pool"}}, {"geometry": {"type": "Point", "coordinates": [-120.44334549054575, 36.857798333966755]}, "type": "Feature", "properties": {"date": "08/22/2017", "city": null, "region": "Fresno County (California, USA)", "positive": "SLEV", "title": "YTD Positive Mosquito Pool"}}, {"geometry": {"type": "Point", "coordinates": [-119.79608239934322, 36.788926997698894]}, "type": "Feature", "properties": {"date": "08/22/2017", "city": "Fresno", "region": "Fresno County (California, USA)", "positive": "SLEV", "title": "YTD Positive Mosquito Pool"}}, {"geometry": {"type": "Point", "coordinates": [-119.16054233584127, 35.34924117015113]}, "type": "Feature", "properties": {"date": "08/24/2017", "city": "Bakersfield", "region": "Kern County (California, USA)", "positive": "SLEV", "title": "YTD Positive Mosquito Pool"}}, {"geometry": {"type": "Point", "coordinates": [-119.18195538511728, 35.33546272263204]}, "type": "Feature", "properties": {"date": "08/24/2017", "city": "Bakersfield", "region": "Kern County (California, USA)", "positive": "SLEV", "title": "YTD Positive Mosquito Pool"}}, {"geometry": {"type": "Point", "coordinates": [-119.8293969998164, 36.6927900305997]}, "type": "Feature", "properties": {"date": "08/23/2017", "city": "Fresno", "region": "Fresno County (California, USA)", "positive": "SLEV", "title": "YTD Positive Mosquito Pool"}}, {"geometry": {"type": "Point", "coordinates": [-119.22837407364906, 35.778102266404545]}, "type": "Feature", "properties": {"date": "08/25/2017", "city": "Delano", "region": "Kern County (California, USA)", "positive": "SLEV", "title": "YTD Positive Mosquito Pool"}}, {"geometry": {"type": "Point", "coordinates": [-120.30555153274102, 36.77803250005717]}, "type": "Feature", "properties": {"date": "08/24/2017", "city": null, "region": "Fresno County (California, USA)", "positive": "SLEV", "title": "YTD Positive Mosquito Pool"}}, {"geometry": {"type": "Point", "coordinates": [-120.3044980820137, 36.77784898539549]}, "type": "Feature", "properties": {"date": "08/24/2017", "city": null, "region": "Fresno County (California, USA)", "positive": "SLEV", "title": "YTD Positive Mosquito Pool"}}, {"geometry": {"type": "Point", "coordinates": [-120.45264253230128, 36.86753008777206]}, "type": "Feature", "properties": {"date": "08/25/2017", "city": "Firebaugh", "region": "Fresno County (California, USA)", "positive": "SLEV", "title": "YTD Positive Mosquito Pool"}}, {"geometry": {"type": "Point", "coordinates": [-120.45069631798141, 36.85891978606318]}, "type": "Feature", "properties": {"date": "08/25/2017", "city": null, "region": "Fresno County (California, USA)", "positive": "SLEV", "title": "YTD Positive Mosquito Pool"}}, {"geometry": {"type": "Point", "coordinates": [-120.4428420451159, 36.852149774528876]}, "type": "Feature", "properties": {"date": "08/24/2017", "city": "Firebaugh", "region": "Fresno County (California, USA)", "positive": "SLEV", "title": "YTD Positive Mosquito Pool"}}, {"geometry": {"type": "Point", "coordinates": [-119.70077248745447, 36.74900104246067]}, "type": "Feature", "properties": {"date": "08/25/2017", "city": null, "region": "Fresno County (California, USA)", "positive": "SLEV", "title": "YTD Positive Mosquito Pool"}}, {"geometry": {"type": "Point", "coordinates": [-120.44222098636553, 36.849056936185846]}, "type": "Feature", "properties": {"date": "08/24/2017", "city": "Firebaugh, Ca", "region": "Fresno County (California, USA)", "positive": "SLEV", "title": "YTD Positive Mosquito Pool"}}, {"geometry": {"type": "Point", "coordinates": [-115.55611786413778, 32.831779710643445]}, "type": "Feature", "properties": {"date": "08/25/2017", "city": "Imperial", "region": "Imperial County (California, USA)", "positive": "SLEV", "title": "YTD Positive Mosquito Pool"}}, {"geometry": {"type": "Point", "coordinates": [-120.33989613285677, 36.859772593131396]}, "type": "Feature", "properties": {"date": "08/21/2017", "city": "Firebaugh", "region": "Madera County (California, USA)", "positive": "SLEV", "title": "YTD Positive Mosquito Pool"}}, {"geometry": {"type": "Point", "coordinates": [-121.02584935550578, 37.30481014662606]}, "type": "Feature", "properties": {"date": "08/29/2017", "city": "Newman", "region": "Stanislaus County (California, USA)", "positive": "SLEV", "title": "YTD Positive Mosquito Pool"}}, {"geometry": {"type": "Point", "coordinates": [-121.00574608923465, 37.31548275339331]}, "type": "Feature", "properties": {"date": "08/29/2017", "city": "Newman", "region": "Stanislaus County (California, USA)", "positive": "SLEV", "title": "YTD Positive Mosquito Pool"}}, {"geometry": {"type": "Point", "coordinates": [-121.00164917967331, 37.31228882685998]}, "type": "Feature", "properties": {"date": "08/29/2017", "city": "Newman", "region": "Stanislaus County (California, USA)", "positive": "SLEV", "title": "YTD Positive Mosquito Pool"}}, {"geometry": {"type": "Point", "coordinates": [-121.00922263758311, 37.31023712475453]}, "type": "Feature", "properties": {"date": "08/29/2017", "city": "Newman", "region": "Stanislaus County (California, USA)", "positive": "SLEV", "title": "YTD Positive Mosquito Pool"}}, {"geometry": {"type": "Point", "coordinates": [-120.97592286462675, 37.341050770505404]}, "type": "Feature", "properties": {"date": "08/29/2017", "city": "Newman", "region": "Stanislaus County (California, USA)", "positive": "SLEV", "title": "YTD Positive Mosquito Pool"}}, {"geometry": {"type": "Point", "coordinates": [-120.97957319156235, 37.35258283335002]}, "type": "Feature", "properties": {"date": "08/29/2017", "city": "Newman", "region": "Stanislaus County (California, USA)", "positive": "SLEV", "title": "YTD Positive Mosquito Pool"}}, {"geometry": {"type": "Point", "coordinates": [-121.57560844086798, 39.35775975067845]}, "type": "Feature", "properties": {"date": "08/28/2017", "city": "Oroville", "region": "Butte County (California, USA)", "positive": "SLEV", "title": "YTD Positive Mosquito Pool"}}, {"geometry": {"type": "Point", "coordinates": [-116.05907232360245, 33.538069428283805]}, "type": "Feature", "properties": {"date": "08/29/2017", "city": "Mecca", "region": "Riverside County (California, USA)", "positive": "SLEV", "title": "YTD Positive Mosquito Pool"}}, {"geometry": {"type": "Point", "coordinates": [-120.3752120351254, 36.75220297965602]}, "type": "Feature", "properties": {"date": "08/31/2017", "city": "Mendota", "region": "Fresno County (California, USA)", "positive": "SLEV", "title": "YTD Positive Mosquito Pool"}}, {"geometry": {"type": "Point", "coordinates": [-120.32902502395355, 36.147628630206036]}, "type": "Feature", "properties": {"date": "08/31/2017", "city": null, "region": "Fresno County (California, USA)", "positive": "SLEV", "title": "YTD Positive Mosquito Pool"}}, {"geometry": {"type": "Point", "coordinates": [-119.80581203094299, 36.30119632075244]}, "type": "Feature", "properties": {"date": "08/31/2017", "city": "Lemoore", "region": "Kings County (California, USA)", "positive": "SLEV", "title": "YTD Positive Mosquito Pool"}}, {"geometry": {"type": "Point", "coordinates": [-119.730673286798, 36.22416328991554]}, "type": "Feature", "properties": {"date": "08/31/2017", "city": "Lemoore", "region": "Kings County (California, USA)", "positive": "SLEV", "title": "YTD Positive Mosquito Pool"}}, {"geometry": {"type": "Point", "coordinates": [-119.7280544536716, 36.22521381573154]}, "type": "Feature", "properties": {"date": "08/31/2017", "city": "Lemoore", "region": "Kings County (California, USA)", "positive": "SLEV", "title": "YTD Positive Mosquito Pool"}}, {"geometry": {"type": "Point", "coordinates": [-119.72934959840431, 36.22416729758495]}, "type": "Feature", "properties": {"date": "08/31/2017", "city": "Lemoore", "region": "Kings County (California, USA)", "positive": "SLEV", "title": "YTD Positive Mosquito Pool"}}, {"geometry": {"type": "Point", "coordinates": [-119.72411273867769, 36.2268361007282]}, "type": "Feature", "properties": {"date": "08/31/2017", "city": "Lemoore", "region": "Kings County (California, USA)", "positive": "SLEV", "title": "YTD Positive Mosquito Pool"}}, {"geometry": {"type": "Point", "coordinates": [-119.88604260354239, 36.376869940359526]}, "type": "Feature", "properties": {"date": "09/01/2017", "city": "Lemoore", "region": "Kings County (California, USA)", "positive": "SLEV", "title": "YTD Positive Mosquito Pool"}}, {"geometry": {"type": "Point", "coordinates": [-120.34334401033578, 36.857342815281825]}, "type": "Feature", "properties": {"date": "08/29/2017", "city": "Firebaugh", "region": "Madera County (California, USA)", "positive": "SLEV", "title": "YTD Positive Mosquito Pool"}}, {"geometry": {"type": "Point", "coordinates": [-120.43251217588409, 36.856744357650506]}, "type": "Feature", "properties": {"date": "09/06/2017", "city": "Firebaugh", "region": "Madera County (California, USA)", "positive": "SLEV", "title": "YTD Positive Mosquito Pool"}}, {"geometry": {"type": "Point", "coordinates": [-120.45223129639955, 36.86118541644054]}, "type": "Feature", "properties": {"date": "09/06/2017", "city": "Firebaugh, CA", "region": "Fresno County (California, USA)", "positive": "SLEV", "title": "YTD Positive Mosquito Pool"}}, {"geometry": {"type": "Point", "coordinates": [-115.56136222465771, 32.82888267983165]}, "type": "Feature", "properties": {"date": "09/05/2017", "city": "Imperial", "region": "Imperial County (California, USA)", "positive": "SLEV", "title": "YTD Positive Mosquito Pool"}}, {"geometry": {"type": "Point", "coordinates": [-119.24006858292331, 35.235074528265486]}, "type": "Feature", "properties": {"date": "09/06/2017", "city": "Bakersfield", "region": "Kern County (California, USA)", "positive": "SLEV", "title": "YTD Positive Mosquito Pool"}}, {"geometry": {"type": "Point", "coordinates": [-116.06164935700916, 33.53694764266303]}, "type": "Feature", "properties": {"date": "09/06/2017", "city": "Mecca", "region": "Riverside County (California, USA)", "positive": "SLEV", "title": "YTD Positive Mosquito Pool"}}, {"geometry": {"type": "Point", "coordinates": [-116.02485092906878, 33.52048841294924]}, "type": "Feature", "properties": {"date": "09/06/2017", "city": "Mecca", "region": "Riverside County (California, USA)", "positive": "SLEV", "title": "YTD Positive Mosquito Pool"}}, {"geometry": {"type": "Point", "coordinates": [-120.4561944353978, 36.84599226204186]}, "type": "Feature", "properties": {"date": "09/06/2017", "city": "Firebaugh", "region": "Fresno County (California, USA)", "positive": "SLEV", "title": "YTD Positive Mosquito Pool"}}, {"geometry": {"type": "Point", "coordinates": [-120.46508589855534, 36.873176917487]}, "type": "Feature", "properties": {"date": "09/06/2017", "city": "Firebaugh", "region": "Fresno County (California, USA)", "positive": "SLEV", "title": "YTD Positive Mosquito Pool"}}, {"geometry": {"type": "Point", "coordinates": [-120.47169689558157, 36.864659069636595]}, "type": "Feature", "properties": {"date": "09/06/2017", "city": "Firebaugh", "region": "Fresno County (California, USA)", "positive": "SLEV", "title": "YTD Positive Mosquito Pool"}}, {"geometry": {"type": "Point", "coordinates": [-120.44270431825147, 36.85767116995911]}, "type": "Feature", "properties": {"date": "09/06/2017", "city": null, "region": "Fresno County (California, USA)", "positive": "SLEV", "title": "YTD Positive Mosquito Pool"}}, {"geometry": {"type": "Point", "coordinates": [-120.4394587847409, 36.8522485118618]}, "type": "Feature", "properties": {"date": "09/06/2017", "city": null, "region": "Fresno County (California, USA)", "positive": "SLEV", "title": "YTD Positive Mosquito Pool"}}, {"geometry": {"type": "Point", "coordinates": [-120.44011576125139, 36.857350689830014]}, "type": "Feature", "properties": {"date": "09/06/2017", "city": null, "region": "Fresno County (California, USA)", "positive": "SLEV", "title": "YTD Positive Mosquito Pool"}}, {"geometry": {"type": "Point", "coordinates": [-120.6739350222099, 36.90810606922979]}, "type": "Feature", "properties": {"date": "09/06/2017", "city": "Dos Palos", "region": "Fresno County (California, USA)", "positive": "SLEV", "title": "YTD Positive Mosquito Pool"}}, {"geometry": {"type": "Point", "coordinates": [-120.65463608177015, 36.85147593628533]}, "type": "Feature", "properties": {"date": "09/06/2017", "city": "Firebaugh", "region": "Fresno County (California, USA)", "positive": "SLEV", "title": "YTD Positive Mosquito Pool"}}, {"geometry": {"type": "Point", "coordinates": [-120.65012234817395, 36.845170272236324]}, "type": "Feature", "properties": {"date": "09/06/2017", "city": "Firebaugh", "region": "Fresno County (California, USA)", "positive": "SLEV", "title": "YTD Positive Mosquito Pool"}}, {"geometry": {"type": "Point", "coordinates": [-120.22145642685629, 36.748044712041676]}, "type": "Feature", "properties": {"date": "09/06/2017", "city": "Kerman", "region": "Fresno County (California, USA)", "positive": "SLEV", "title": "YTD Positive Mosquito Pool"}}, {"geometry": {"type": "Point", "coordinates": [-120.34188134882388, 36.7319679421468]}, "type": "Feature", "properties": {"date": "09/06/2017", "city": "Mendota", "region": "Fresno County (California, USA)", "positive": "SLEV", "title": "YTD Positive Mosquito Pool"}}, {"geometry": {"type": "Point", "coordinates": [-120.31873160093951, 36.762907207420604]}, "type": "Feature", "properties": {"date": "09/06/2017", "city": "Mendota", "region": "Fresno County (California, USA)", "positive": "SLEV", "title": "YTD Positive Mosquito Pool"}}, {"geometry": {"type": "Point", "coordinates": [-120.31574965110826, 36.76085864676456]}, "type": "Feature", "properties": {"date": "09/06/2017", "city": "Mendota", "region": "Fresno County (California, USA)", "positive": "SLEV", "title": "YTD Positive Mosquito Pool"}}, {"geometry": {"type": "Point", "coordinates": [-120.31620104211137, 36.76427830837151]}, "type": "Feature", "properties": {"date": "09/06/2017", "city": "Mendota", "region": "Fresno County (California, USA)", "positive": "SLEV", "title": "YTD Positive Mosquito Pool"}}, {"geometry": {"type": "Point", "coordinates": [-121.02316589292086, 37.320776173336796]}, "type": "Feature", "properties": {"date": "09/06/2017", "city": "Newman", "region": "Stanislaus County (California, USA)", "positive": "SLEV", "title": "YTD Positive Mosquito Pool"}}, {"geometry": {"type": "Point", "coordinates": [-121.00829453432655, 37.32084902289333]}, "type": "Feature", "properties": {"date": "09/06/2017", "city": "Newman", "region": "Stanislaus County (California, USA)", "positive": "SLEV", "title": "YTD Positive Mosquito Pool"}}, {"geometry": {"type": "Point", "coordinates": [-116.03639168250315, 33.53637392652857]}, "type": "Feature", "properties": {"date": "09/06/2017", "city": "Mecca", "region": "Riverside County (California, USA)", "positive": "SLEV", "title": "YTD Positive Mosquito Pool"}}, {"geometry": {"type": "Point", "coordinates": [-116.03532929198853, 33.531336684188815]}, "type": "Feature", "properties": {"date": "09/06/2017", "city": "Mecca", "region": "Riverside County (California, USA)", "positive": "SLEV", "title": "YTD Positive Mosquito Pool"}}, {"geometry": {"type": "Point", "coordinates": [-116.03268699952079, 33.533915078446356]}, "type": "Feature", "properties": {"date": "09/06/2017", "city": "Mecca", "region": "Riverside County (California, USA)", "positive": "SLEV", "title": "YTD Positive Mosquito Pool"}}, {"geometry": {"type": "Point", "coordinates": [-116.04194261495401, 33.535816345486815]}, "type": "Feature", "properties": {"date": "09/06/2017", "city": "Mecca", "region": "Riverside County (California, USA)", "positive": "SLEV", "title": "YTD Positive Mosquito Pool"}}, {"geometry": {"type": "Point", "coordinates": [-116.04546431517583, 33.53342920677084]}, "type": "Feature", "properties": {"date": "09/06/2017", "city": "Mecca", "region": "Riverside County (California, USA)", "positive": "SLEV", "title": "YTD Positive Mosquito Pool"}}, {"geometry": {"type": "Point", "coordinates": [-115.92908219469176, 33.50999844936553]}, "type": "Feature", "properties": {"date": "09/06/2017", "city": "Mecca", "region": "Riverside County (California, USA)", "positive": "SLEV", "title": "YTD Positive Mosquito Pool"}}, {"geometry": {"type": "Point", "coordinates": [-115.93814036049677, 33.521696215794954]}, "type": "Feature", "properties": {"date": "09/06/2017", "city": "Mecca", "region": "Riverside County (California, USA)", "positive": "SLEV", "title": "YTD Positive Mosquito Pool"}}, {"geometry": {"type": "Point", "coordinates": [-115.9360907819374, 33.51793548085878]}, "type": "Feature", "properties": {"date": "09/06/2017", "city": "Mecca", "region": "Riverside County (California, USA)", "positive": "SLEV", "title": "YTD Positive Mosquito Pool"}}, {"geometry": {"type": "Point", "coordinates": [-120.45778322512847, 36.856340113664174]}, "type": "Feature", "properties": {"date": "09/07/2017", "city": null, "region": "Fresno County (California, USA)", "positive": "SLEV", "title": "YTD Positive Mosquito Pool"}}, {"geometry": {"type": "Point", "coordinates": [-116.03587074314666, 33.532989183166706]}, "type": "Feature", "properties": {"date": "09/08/2017", "city": "Mecca", "region": "Riverside County (California, USA)", "positive": "SLEV", "title": "YTD Positive Mosquito Pool"}}, {"geometry": {"type": "Point", "coordinates": [-116.03717028286493, 33.53245025521665]}, "type": "Feature", "properties": {"date": "09/08/2017", "city": "Mecca", "region": "Riverside County (California, USA)", "positive": "SLEV", "title": "YTD Positive Mosquito Pool"}}, {"geometry": {"type": "Point", "coordinates": [-116.03683252100464, 33.536311933556135]}, "type": "Feature", "properties": {"date": "09/08/2017", "city": "Mecca", "region": "Riverside County (California, USA)", "positive": "SLEV", "title": "YTD Positive Mosquito Pool"}}, {"geometry": {"type": "Point", "coordinates": [-116.03126705379924, 33.53238985819539]}, "type": "Feature", "properties": {"date": "09/08/2017", "city": "Mecca", "region": "Riverside County (California, USA)", "positive": "SLEV", "title": "YTD Positive Mosquito Pool"}}, {"geometry": {"type": "Point", "coordinates": [-116.03158634682691, 33.53189013433939]}, "type": "Feature", "properties": {"date": "09/08/2017", "city": "Mecca", "region": "Riverside County (California, USA)", "positive": "SLEV", "title": "YTD Positive Mosquito Pool"}}, {"geometry": {"type": "Point", "coordinates": [-119.69985951949033, 36.413430561260306]}, "type": "Feature", "properties": {"date": "09/06/2017", "city": "Hardwick", "region": "Kings County (California, USA)", "positive": "SLEV", "title": "YTD Positive Mosquito Pool"}}, {"geometry": {"type": "Point", "coordinates": [-120.45442830074079, 36.86361931887106]}, "type": "Feature", "properties": {"date": "09/08/2017", "city": null, "region": "Fresno County (California, USA)", "positive": "SLEV", "title": "YTD Positive Mosquito Pool"}}, {"geometry": {"type": "Point", "coordinates": [-120.46503729082757, 36.87541343336835]}, "type": "Feature", "properties": {"date": "09/08/2017", "city": null, "region": "Fresno County (California, USA)", "positive": "SLEV", "title": "YTD Positive Mosquito Pool"}}, {"geometry": {"type": "Point", "coordinates": [-120.46256517788827, 36.873951710134975]}, "type": "Feature", "properties": {"date": "09/08/2017", "city": null, "region": "Fresno County (California, USA)", "positive": "SLEV", "title": "YTD Positive Mosquito Pool"}}, {"geometry": {"type": "Point", "coordinates": [-119.78570694385571, 36.731521101443235]}, "type": "Feature", "properties": {"date": "09/07/2017", "city": "Fresno", "region": "Fresno County (California, USA)", "positive": "SLEV", "title": "YTD Positive Mosquito Pool"}}, {"geometry": {"type": "Point", "coordinates": [-118.34202408698005, 33.93746603934876]}, "type": "Feature", "properties": {"date": "09/07/2017", "city": "Inglewood", "region": "Los Angeles County (California, USA)", "positive": "SLEV", "title": "YTD Positive Mosquito Pool"}}, {"geometry": {"type": "Point", "coordinates": [-121.0029207561123, 37.31891445353121]}, "type": "Feature", "properties": {"date": "09/12/2017", "city": "Newman", "region": "Stanislaus County (California, USA)", "positive": "SLEV", "title": "YTD Positive Mosquito Pool"}}, {"geometry": {"type": "Point", "coordinates": [-121.00080037153032, 37.313775268024074]}, "type": "Feature", "properties": {"date": "09/12/2017", "city": "Newman", "region": "Stanislaus County (California, USA)", "positive": "SLEV", "title": "YTD Positive Mosquito Pool"}}, {"geometry": {"type": "Point", "coordinates": [-121.00501348282042, 37.31633962316858]}, "type": "Feature", "properties": {"date": "09/12/2017", "city": "Newman", "region": "Stanislaus County (California, USA)", "positive": "SLEV", "title": "YTD Positive Mosquito Pool"}}, {"geometry": {"type": "Point", "coordinates": [-115.56352001629529, 32.83630126455749]}, "type": "Feature", "properties": {"date": "09/11/2017", "city": "Imperial", "region": "Imperial County (California, USA)", "positive": "SLEV", "title": "YTD Positive Mosquito Pool"}}, {"geometry": {"type": "Point", "coordinates": [-121.07950859051526, 37.51418716471551]}, "type": "Feature", "properties": {"date": "09/12/2017", "city": "Modesto", "region": "Stanislaus County (California, USA)", "positive": "SLEV", "title": "YTD Positive Mosquito Pool"}}, {"geometry": {"type": "Point", "coordinates": [-121.07449802474684, 37.49314695821403]}, "type": "Feature", "properties": {"date": "09/12/2017", "city": "Patterson", "region": "Stanislaus County (California, USA)", "positive": "SLEV", "title": "YTD Positive Mosquito Pool"}}, {"geometry": {"type": "Point", "coordinates": [-116.04069873724313, 33.5282920661756]}, "type": "Feature", "properties": {"date": "09/12/2017", "city": "Mecca", "region": "Riverside County (California, USA)", "positive": "SLEV", "title": "YTD Positive Mosquito Pool"}}, {"geometry": {"type": "Point", "coordinates": [-116.03972698015555, 33.52943247664895]}, "type": "Feature", "properties": {"date": "09/12/2017", "city": "Mecca", "region": "Riverside County (California, USA)", "positive": "SLEV", "title": "YTD Positive Mosquito Pool"}}, {"geometry": {"type": "Point", "coordinates": [-116.04138067928604, 33.53464309587488]}, "type": "Feature", "properties": {"date": "09/12/2017", "city": "Mecca", "region": "Riverside County (California, USA)", "positive": "SLEV", "title": "YTD Positive Mosquito Pool"}}, {"geometry": {"type": "Point", "coordinates": [-116.0647917596113, 33.53820957553806]}, "type": "Feature", "properties": {"date": "09/12/2017", "city": "Mecca", "region": "Riverside County (California, USA)", "positive": "SLEV", "title": "YTD Positive Mosquito Pool"}}, {"geometry": {"type": "Point", "coordinates": [-116.03019230600412, 33.5247193382098]}, "type": "Feature", "properties": {"date": "09/12/2017", "city": "Mecca", "region": "Riverside County (California, USA)", "positive": "SLEV", "title": "YTD Positive Mosquito Pool"}}, {"geometry": {"type": "Point", "coordinates": [-120.63226692736566, 36.95576356606888]}, "type": "Feature", "properties": {"date": "09/12/2017", "city": "Dos Palos", "region": "Fresno County (California, USA)", "positive": "SLEV", "title": "YTD Positive Mosquito Pool"}}, {"geometry": {"type": "Point", "coordinates": [-120.6275077620989, 36.95527072491547]}, "type": "Feature", "properties": {"date": "09/12/2017", "city": "Dos Palos", "region": "Fresno County (California, USA)", "positive": "SLEV", "title": "YTD Positive Mosquito Pool"}}, {"geometry": {"type": "Point", "coordinates": [-120.4535010181793, 36.86569180074966]}, "type": "Feature", "properties": {"date": "09/13/2017", "city": null, "region": "Fresno County (California, USA)", "positive": "SLEV", "title": "YTD Positive Mosquito Pool"}}, {"geometry": {"type": "Point", "coordinates": [-120.43871490580311, 36.846311274508764]}, "type": "Feature", "properties": {"date": "09/13/2017", "city": null, "region": "Fresno County (California, USA)", "positive": "SLEV", "title": "YTD Positive Mosquito Pool"}}, {"geometry": {"type": "Point", "coordinates": [-120.63404936081005, 37.43305157979985]}, "type": "Feature", "properties": {"date": "09/13/2017", "city": "Winton", "region": "Merced County (California, USA)", "positive": "SLEV", "title": "YTD Positive Mosquito Pool"}}, {"geometry": {"type": "Point", "coordinates": [-120.37924393462264, 37.309888478258664]}, "type": "Feature", "properties": {"date": "09/14/2017", "city": "merced", "region": "Merced County (California, USA)", "positive": "SLEV", "title": "YTD Positive Mosquito Pool"}}, {"geometry": {"type": "Point", "coordinates": [-119.88655589800348, 36.3698069278051]}, "type": "Feature", "properties": {"date": "09/14/2017", "city": "Lemoore", "region": "Kings County (California, USA)", "positive": "SLEV", "title": "YTD Positive Mosquito Pool"}}, {"geometry": {"type": "Point", "coordinates": [-119.89055732274812, 36.37719562458761]}, "type": "Feature", "properties": {"date": "09/14/2017", "city": "Lemoore", "region": "Kings County (California, USA)", "positive": "SLEV", "title": "YTD Positive Mosquito Pool"}}, {"geometry": {"type": "Point", "coordinates": [-119.24929083296944, 35.78004462390204]}, "type": "Feature", "properties": {"date": "09/12/2017", "city": "Delano", "region": "Kern County (California, USA)", "positive": "SLEV", "title": "YTD Positive Mosquito Pool"}}, {"geometry": {"type": "Point", "coordinates": [-119.22778841280422, 35.679492554970686]}, "type": "Feature", "properties": {"date": "09/15/2017", "city": "McFarland", "region": "Kern County (California, USA)", "positive": "SLEV", "title": "YTD Positive Mosquito Pool"}}, {"geometry": {"type": "Point", "coordinates": [-119.2665660652696, 35.69371043978378]}, "type": "Feature", "properties": {"date": "09/15/2017", "city": "McFarland", "region": "Kern County (California, USA)", "positive": "SLEV", "title": "YTD Positive Mosquito Pool"}}, {"geometry": {"type": "Point", "coordinates": [-119.23362799127203, 35.76731186596428]}, "type": "Feature", "properties": {"date": "09/15/2017", "city": "Delano", "region": "Kern County (California, USA)", "positive": "SLEV", "title": "YTD Positive Mosquito Pool"}}, {"geometry": {"type": "Point", "coordinates": [-120.31176780557789, 36.72637935404953]}, "type": "Feature", "properties": {"date": "09/14/2017", "city": "Mendota", "region": "Fresno County (California, USA)", "positive": "SLEV", "title": "YTD Positive Mosquito Pool"}}, {"geometry": {"type": "Point", "coordinates": [-119.26465165470725, 35.883126851665466]}, "type": "Feature", "properties": {"date": "09/19/2017", "city": "Earlimart", "region": "Tulare County (California, USA)", "positive": "SLEV", "title": "YTD Positive Mosquito Pool"}}, {"geometry": {"type": "Point", "coordinates": [-120.09084770582704, 36.771495561521604]}, "type": "Feature", "properties": {"date": "09/19/2017", "city": "Kerman", "region": "Fresno County (California, USA)", "positive": "SLEV", "title": "YTD Positive Mosquito Pool"}}, {"geometry": {"type": "Point", "coordinates": [-120.83456117166125, 37.50886387680542]}, "type": "Feature", "properties": {"date": "09/19/2017", "city": "Turlock", "region": "Stanislaus County (California, USA)", "positive": "SLEV", "title": "YTD Positive Mosquito Pool"}}, {"geometry": {"type": "Point", "coordinates": [-120.81363017417749, 37.50846544597507]}, "type": "Feature", "properties": {"date": "09/19/2017", "city": "Turlock", "region": "Stanislaus County (California, USA)", "positive": "SLEV", "title": "YTD Positive Mosquito Pool"}}, {"geometry": {"type": "Point", "coordinates": [-116.04162649912682, 33.568138971310844]}, "type": "Feature", "properties": {"date": "09/19/2017", "city": "Mecca", "region": "Riverside County (California, USA)", "positive": "SLEV", "title": "YTD Positive Mosquito Pool"}}, {"geometry": {"type": "Point", "coordinates": [-120.31314277087104, 37.088903027950735]}, "type": "Feature", "properties": {"date": "09/13/2017", "city": "Chowchilla", "region": "Madera County (California, USA)", "positive": "SLEV", "title": "YTD Positive Mosquito Pool"}}, {"geometry": {"type": "Point", "coordinates": [-119.77547113436954, 36.389907393348]}, "type": "Feature", "properties": {"date": "09/19/2017", "city": "Lemoore", "region": "Kings County (California, USA)", "positive": "SLEV", "title": "YTD Positive Mosquito Pool"}}, {"geometry": {"type": "Point", "coordinates": [-119.37427993706478, 36.22909948597605]}, "type": "Feature", "properties": {"date": "09/08/2017", "city": "Tulare", "region": "Tulare County (California, USA)", "positive": "SLEV", "title": "YTD Positive Mosquito Pool"}}, {"geometry": {"type": "Point", "coordinates": [-119.16640275167447, 35.6213478175085]}, "type": "Feature", "properties": {"date": "09/21/2017", "city": "McFarland", "region": "Kern County (California, USA)", "positive": "SLEV", "title": "YTD Positive Mosquito Pool"}}, {"geometry": {"type": "Point", "coordinates": [-119.31235082683878, 35.884254392878034]}, "type": "Feature", "properties": {"date": "09/21/2017", "city": "Earlimart", "region": "Tulare County (California, USA)", "positive": "SLEV", "title": "YTD Positive Mosquito Pool"}}, {"geometry": {"type": "Point", "coordinates": [-119.23133009335032, 35.669532564171575]}, "type": "Feature", "properties": {"date": "09/22/2017", "city": "McFarland", "region": "Kern County (California, USA)", "positive": "SLEV", "title": "YTD Positive Mosquito Pool"}}, {"geometry": {"type": "Point", "coordinates": [-120.12862777859095, 36.812693108913585]}, "type": "Feature", "properties": {"date": "09/26/2017", "city": "Kerman", "region": "Fresno County (California, USA)", "positive": "SLEV", "title": "YTD Positive Mosquito Pool"}}, {"geometry": {"type": "Point", "coordinates": [-120.22632383246166, 36.74546565873824]}, "type": "Feature", "properties": {"date": "09/26/2017", "city": "Kerman", "region": "Fresno County (California, USA)", "positive": "SLEV", "title": "YTD Positive Mosquito Pool"}}, {"geometry": {"type": "Point", "coordinates": [-121.00513469106951, 37.31807286643247]}, "type": "Feature", "properties": {"date": "09/26/2017", "city": "Newman", "region": "Stanislaus County (California, USA)", "positive": "SLEV", "title": "YTD Positive Mosquito Pool"}}, {"geometry": {"type": "Point", "coordinates": [-121.00882089776121, 37.31059819278956]}, "type": "Feature", "properties": {"date": "09/26/2017", "city": "Newman", "region": "Stanislaus County (California, USA)", "positive": "SLEV", "title": "YTD Positive Mosquito Pool"}}, {"geometry": {"type": "Point", "coordinates": [-121.00849104549441, 37.31420937395892]}, "type": "Feature", "properties": {"date": "09/26/2017", "city": "Newman", "region": "Stanislaus County (California, USA)", "positive": "SLEV", "title": "YTD Positive Mosquito Pool"}}, {"geometry": {"type": "Point", "coordinates": [-121.00940194373601, 37.316468093308465]}, "type": "Feature", "properties": {"date": "09/26/2017", "city": "Newman", "region": "Stanislaus County (California, USA)", "positive": "SLEV", "title": "YTD Positive Mosquito Pool"}}, {"geometry": {"type": "Point", "coordinates": [-121.00496811747539, 37.3145051495701]}, "type": "Feature", "properties": {"date": "09/26/2017", "city": "Newman", "region": "Stanislaus County (California, USA)", "positive": "SLEV", "title": "YTD Positive Mosquito Pool"}}, {"geometry": {"type": "Point", "coordinates": [-121.00989063321401, 37.313155237452875]}, "type": "Feature", "properties": {"date": "09/26/2017", "city": "Newman", "region": "Stanislaus County (California, USA)", "positive": "SLEV", "title": "YTD Positive Mosquito Pool"}}, {"geometry": {"type": "Point", "coordinates": [-121.0140721980494, 37.321125674647156]}, "type": "Feature", "properties": {"date": "09/26/2017", "city": "Newman", "region": "Stanislaus County (California, USA)", "positive": "SLEV", "title": "YTD Positive Mosquito Pool"}}, {"geometry": {"type": "Point", "coordinates": [-120.98100824438966, 37.35238060928273]}, "type": "Feature", "properties": {"date": "09/26/2017", "city": "Newman", "region": "Stanislaus County (California, USA)", "positive": "SLEV", "title": "YTD Positive Mosquito Pool"}}, {"geometry": {"type": "Point", "coordinates": [-121.01430891471378, 37.319625765062696]}, "type": "Feature", "properties": {"date": "09/27/2017", "city": "Newman", "region": "Stanislaus County (California, USA)", "positive": "SLEV", "title": "YTD Positive Mosquito Pool"}}, {"geometry": {"type": "Point", "coordinates": [-117.30809149654118, 34.18263694344319]}, "type": "Feature", "properties": {"date": "09/26/2017", "city": "San Bernadino", "region": "San Bernardino County (California, USA)", "positive": "SLEV", "title": "YTD Positive Mosquito Pool"}}, {"geometry": {"type": "Point", "coordinates": [-120.37339210803968, 36.74288045583133]}, "type": "Feature", "properties": {"date": "09/28/2017", "city": "Mendota", "region": "Fresno County (California, USA)", "positive": "SLEV", "title": "YTD Positive Mosquito Pool"}}, {"geometry": {"type": "Point", "coordinates": [-120.31604295587893, 37.03187592506763]}, "type": "Feature", "properties": {"date": "09/26/2017", "city": "chowchilla", "region": "Madera County (California, USA)", "positive": "SLEV", "title": "YTD Positive Mosquito Pool"}}, {"geometry": {"type": "Point", "coordinates": [-120.02172376412292, 36.92076602857974]}, "type": "Feature", "properties": {"date": "09/27/2017", "city": "Madera", "region": "Madera County (California, USA)", "positive": "SLEV", "title": "YTD Positive Mosquito Pool"}}, {"geometry": {"type": "Point", "coordinates": [-120.04899608120674, 36.930178407841495]}, "type": "Feature", "properties": {"date": "09/27/2017", "city": "Madera", "region": "Madera County (California, USA)", "positive": "SLEV", "title": "YTD Positive Mosquito Pool"}}, {"geometry": {"type": "Point", "coordinates": [-120.04680196533278, 36.92427922956083]}, "type": "Feature", "properties": {"date": "09/27/2017", "city": "Madera", "region": "Madera County (California, USA)", "positive": "SLEV", "title": "YTD Positive Mosquito Pool"}}, {"geometry": {"type": "Point", "coordinates": [-120.02434059258782, 36.91781074749761]}, "type": "Feature", "properties": {"date": "09/29/2017", "city": "Madera", "region": "Madera County (California, USA)", "positive": "SLEV", "title": "YTD Positive Mosquito Pool"}}, {"geometry": {"type": "Point", "coordinates": [-120.05340913933674, 36.931017849354326]}, "type": "Feature", "properties": {"date": "09/29/2017", "city": "Madera", "region": "Madera County (California, USA)", "positive": "SLEV", "title": "YTD Positive Mosquito Pool"}}, {"geometry": {"type": "Point", "coordinates": [-120.56990008396785, 36.91263821368699]}, "type": "Feature", "properties": {"date": "10/10/2017", "city": "Dos Palos", "region": "Fresno County (California, USA)", "positive": "SLEV", "title": "YTD Positive Mosquito Pool"}}, {"geometry": {"type": "Point", "coordinates": [-117.37777125123742, 34.12979554109122]}, "type": "Feature", "properties": {"date": "10/11/2017", "city": "Rialto", "region": "San Bernardino County (California, USA)", "positive": "SLEV", "title": "YTD Positive Mosquito Pool"}}, {"geometry": {"type": "Point", "coordinates": [-119.35997513420314, 36.20065625846889]}, "type": "Feature", "properties": {"date": "10/05/2017", "city": "Tulare", "region": "Tulare County (California, USA)", "positive": "SLEV", "title": "YTD Positive Mosquito Pool"}}, {"geometry": {"type": "Point", "coordinates": [-120.38201382571859, 36.799669142630755]}, "type": "Feature", "properties": {"date": "10/12/2017", "city": "Firebaugh", "region": "Fresno County (California, USA)", "positive": "SLEV", "title": "YTD Positive Mosquito Pool"}}]}